GRAND_ID,DAM_NAME,MAIN_BASIN,SUB_BASIN,NEAR_CITY,COUNTRY,SEC_CNTRY,YEAR,REM_YEAR,DAM_HGT_M,DAM_LEN_M,AREA_SKM,CAP_MCM,DEPTH_M,DIS_AVG_LS,DOR_PC,ELEV_MASL,CATCH_SKM,USE_IRRI,USE_ELEC,USE_SUPP,USE_FCON,USE_RECR,USE_NAVI,USE_FISH,USE_PCON,USE_LIVE,USE_OTHR,MAIN_USE,LAKE_CTRL,LONG_DD,LAT_DD,COUNTRY_1,GDP_capita,Population,RES_YLD_TN,RES_LSS_TN,RES_BAL,FISH_RATIO,CO2EQ_areal,CO2EQ_total,INSCAP_MW,pred_INSCAP_MW,GEN_GWH_YR,pred_GEN_GWH_YR,run_mm_syr,inu_pc_umn,sgr_dk_sav,clz_cl_smj,ari_ix_sav,ari_ix_uav,glc_cl_smj,pnv_cl_smj,wet_cl_smj,for_pc_use,crp_pc_use,pst_pc_use,ire_pc_use,gla_pc_use,prm_pc_use,pac_pc_use,fmh_cl_smj,soc_th_uav,swc_pc_uyr,lit_cl_smj,ero_kh_uav,pop_ct_usu,ppd_pk_uav,urb_pc_use,hft_ix_u09,hdi_ix_sav,LAT_KEY,CO2_areal_per_GWH,CO2_total_per_GWH,fish_per_GWH,MWH_per_sqkm,capacity_factor
4479,Abarda,Nile,Mereb Wenz,Asmara,Eritrea,,1970,,40,,0.96,19.7,20.5,96,650.7,2193,75,,,Main,,,,,,,,Water supply,,38.784886,15.252865,Eritrea,600,3413000,,,,,759.8055186,729.4132979,,,,,32,2,219,17,26,26,14,9,1,0,6,71,0,0,0,0,4,23,23,8,12572,155.746,66.303,7,91,420,Tropical,,,,,
4490,Melka Wakena,Shebelle-Jubba,Shebelle,Adaba,Ethiopia,,,,,,40.65,750,18.5,18172,130.9,2303,4422,,Main,,,,,,,,,Hydroelectricity,,39.429363,7.176584,Ethiopia,1729.926639,106400000,195.848,-1.19517,194.652,163.8662282,,,,,,,104,0,283,11,59,59,16,9,9,0,16,20,1,0,0,34,3,30,49,2,14563,3060.898,112.074,1,99,448,Tropical,,,,,
4493,Kiambere,East Central Coast,Tana,Embu,Kenya,,1987,,112,,11.35,585,51.5,108258,17.1,638,11950,,Main,,,,,,,,,Hydroelectricity,,37.908783,-0.641241,Kenya,2993.028448,50221000,75.7804,-28.0319,47.7484,2.703362954,949.1633789,10773.00435,,106.8366054,,355.637692,147,1,129,17,44,44,13,12,4,22,6,36,1,0,0,21,8,19,34,8,6364,5031.733,124.495,10,88,555,Tropical,,,,,
4494,Sasumua,East Central Coast,Galana,Nairobi,Kenya,,1956,,45,,0.39,15.9,40.8,1257,40.1,2484,97,,,Main,,,,,,,,Water supply,,36.680298,-0.75954,Kenya,2993.028448,50221000,6.22439,-0.0106819,6.21371,582.7043878,365.6947009,142.6209334,,,,,147,1,129,17,44,44,13,12,4,22,6,36,1,0,0,21,8,19,34,8,6364,5031.733,124.495,10,88,555,Tropical,,,,,
4495,Gitaru,East Central Coast,Tana,Embu,Kenya,,1978,,30,,2.55,20,7.8,95141,0.7,923,9602,,Main,,,,,,,,,Hydroelectricity,,37.747917,-0.793542,Kenya,2993.028448,50221000,24.4289,-13.0541,11.3747,1.871358424,3677.790762,9378.366443,,25.14959668,,83.71797742,147,1,129,17,44,44,13,12,4,22,6,36,1,0,0,21,8,19,34,8,6364,5031.733,124.495,10,88,555,Tropical,,,,,
4496,Kamburu,East Central Coast,Tana,Embu,Kenya,,1974,,56,,8.71,150,17.2,94544,5,990,9509,,Main,,,,,,,,,Hydroelectricity,,37.682292,-0.807671,Kenya,2993.028448,50221000,61.9406,-14.1057,47.8349,4.391175199,1674.153392,14581.87604,,46.65133301,,155.2929573,147,1,129,17,44,44,13,12,4,22,6,36,1,0,0,21,8,19,34,8,6364,5031.733,124.495,10,88,555,Tropical,,,,,
4497,Kindaruma,East Central Coast,Tana,Embu,Kenya,,1968,,24,,2.1,16,7.6,96249,0.5,780,9795,,Main,,,,,,,,,Hydroelectricity,,37.806537,-0.809533,Kenya,2993.028448,50221000,21.449,-7.83084,13.6182,2.739042044,4427.955352,9298.706239,,20.35398855,,67.75435708,147,1,129,17,44,44,13,12,4,22,6,36,1,0,0,21,8,19,34,8,6364,5031.733,124.495,10,88,555,Tropical,,,,,
4498,Thika,East Central Coast,Tana,Thika,Kenya,,1993,,63,,2.31,70,30.3,1131,196.3,1993,83,,,Main,,,,,,,,Water supply,,36.850202,-0.820555,Kenya,2993.028448,50221000,22.9554,-0.0235046,22.9319,976.6343609,528.9580409,1221.893074,,,,,147,1,129,17,44,44,13,12,4,22,6,36,1,0,0,21,8,19,34,8,6364,5031.733,124.495,10,88,555,Tropical,,,,,
4499,Masinga,East Central Coast,Tana,Embu,Kenya,,1980,,70,,69.71,1560,22.4,75310,65.7,1046,7247,,Sec,,Main,,,,,,,Flood control,,37.585347,-0.881295,Kenya,2993.028448,50221000,292.574,-54.3071,238.267,5.387398701,1133.942319,79047.11906,,,,,147,1,129,17,44,44,13,12,4,22,6,36,1,0,0,21,8,19,34,8,6364,5031.733,124.495,10,88,555,Tropical,,,,,
4500,Nyumba ya Mungu,East Central Coast,Pangani,Same,Tanzania,,1966,,42,,110.07,1135,10.3,73228,49.1,670,13267,Sec,Main,,,,,,,,,Hydroelectricity,,37.470367,-3.825186,Tanzania,2683.304024,54660000,411.507,-22.3991,389.108,18.37158636,1602.739645,176413.5527,,27.09995198,,90.21032016,89,2,112,13,38,48,13,9,4,15,14,50,3,0,0,18,8,21,40,8,5950,2490.379,128.978,9,90,531,Tropical,,,,,
4501,Mtera,Rufiji,Great Ruaha,Iringa,Tanzania,,1980,,45,,443.68,3200,7.2,103314,98.2,728,69840,,Main,,,,,,,,,Hydroelectricity,,35.984917,-7.136711,Tanzania,2683.304024,54660000,1164.11,-54.8387,1109.27,21.22789198,2920.281434,1295670.467,,40.96507443,,136.3645398,125,2,156,13,60,49,13,9,4,19,4,42,0,0,0,55,8,20,41,8,6095,2024.119,23.613,1,62,531,Tropical,,,,,
4502,Kidatu,Rufiji,Great Ruaha,Kidatu,Tanzania,,1975,,40,,5.57,165,29.6,114772,4.6,458,81583,,Main,,,,,,,,,Hydroelectricity,,36.884786,-7.636177,Tanzania,2683.304024,54660000,44.5885,-13.884,30.7046,3.211502449,1639.11927,9129.894334,,40.45181376,,134.6559976,125,2,156,13,60,49,13,9,4,19,4,42,0,0,0,55,8,20,41,8,6095,2024.119,23.613,1,62,531,Tropical,,,,,
4503,Chipembe,East Central Coast,Montepuez,Chipembe,Mozambique,,1985,,15,,4.14,24,5.8,1120,67.9,34,365,Main,,,,,,,,,,Irrigation,,40.247798,-12.606375,Mozambique,1136.102564,28649000,35.3344,-0.00451861,35.3299,7819.749879,,,,,,,247,5,42,18,60,60,3,9,6,54,4,68,0,0,0,44,8,14,51,9,2745,242.755,23.546,1,76,418,Tropical,,,,,
4504,Nacala,East Central Coast,Ligonha,Nacala,Mozambique,,1971,,17,,0.55,4.4,8,401,34.8,73,141,,,Main,,,,,,,,Water supply,,40.529795,-14.721712,Mozambique,1136.102564,28649000,8.42323,-0.000511793,8.42272,16458.27512,3855.101283,2120.305706,,,,,108,69,46,18,51,46,3,2,6,14,2,40,0,0,0,47,8,21,39,1,5245,30.207,86.093,11,103,418,Tropical,,,,,
4530,Mwarazi,Zambezi,Mazowe,Mutare,Zimbabwe,,1971,,31,,0.64,6.4,10,2634,7.7,1245,291,,,Sec,,,,,,,Main,Other,,32.210566,-18.186079,Zimbabwe,1899.774977,14237000,8.42323,-0.00660669,8.41662,1274.954629,1815.047198,1161.630207,,,,,276,0,113,14,53,53,3,9,1,40,6,44,0,0,0,3,3,19,43,8,7840,530.116,27.559,2,74,484,Tropical,,,,,
4513,Eben,Zambezi,Mazowe,Bindura,Zimbabwe,,1969,,25,,1.53,12.7,8.3,1978,20.4,991,299,Main,,Sec,,,,,,,,Irrigation,,31.534868,-17.077096,Zimbabwe,1899.774977,14237000,16.6871,-0.00793906,16.6792,2101.898713,1784.896655,2730.891882,,,,,178,0,83,14,48,48,16,9,1,34,9,39,1,0,0,11,9,19,41,8,8193,1540.909,70.037,3,83,511,Tropical,,,,,
4517,Mwenje Lake Noakes,Zambezi,Mazowe,Glendale,Zimbabwe,,1970,,36,,3.37,42,12.5,3837,34.7,1152,564,Main,,Sec,,,,,,,,Irrigation,,31.031136,-17.260466,Zimbabwe,1899.774977,14237000,30.7282,-0.0352673,30.6929,871.2943718,1224.408683,4126.257262,,,,,178,0,83,14,48,48,16,9,1,34,9,39,1,0,0,11,9,19,41,8,8193,1540.909,70.037,3,83,511,Tropical,,,,,
4518,Umrodzi,Zambezi,Mazowe,Glendale,Zimbabwe,,1983,,24,,2.05,19.6,9.6,4665,13.3,1152,707,Main,,,,,,,,,,Irrigation,,30.995951,-17.337806,Zimbabwe,1899.774977,14237000,21.449,-0.0213064,21.4277,1006.692825,1456.942882,2986.732908,,,,,178,0,83,14,48,48,16,9,1,34,9,39,1,0,0,11,9,19,41,8,8193,1540.909,70.037,3,83,511,Tropical,,,,,
4519,Brecon,Zambezi,Mazowe,Harare,Zimbabwe,,1985,,29,,2.3,8.1,3.5,1672,15.4,1139,266,Main,,,,,,,,,,Irrigation,,31.193781,-17.381657,Zimbabwe,1899.774977,14237000,22.9554,-0.00816176,22.9473,2812.555135,2630.321177,6049.738707,,,,,178,0,83,14,48,48,16,9,1,34,9,39,1,0,0,11,9,19,41,8,8193,1540.909,70.037,3,83,511,Tropical,,,,,
4521,Mazowe,Zambezi,Mazowe,Harare,Zimbabwe,,1920,,37,,4.25,39.4,9.3,1996,62.6,1240,356,Main,,,,,,,,,,Irrigation,,30.99016,-17.523317,Zimbabwe,1899.774977,14237000,35.9755,-0.0158857,35.9596,2264.646821,1614.676068,6862.373289,,,,,178,0,83,14,48,48,16,9,1,34,9,39,1,0,0,11,9,19,41,8,8193,1540.909,70.037,3,83,511,Tropical,,,,,
4526,Rufaro,Zambezi,Mazowe,Marondera,Zimbabwe,,1985,,28,,0.32,5.5,17.2,644,27.1,1413,145,,,Main,,,,,,,,Water supply,,31.526381,-17.994809,Zimbabwe,1899.774977,14237000,5.02204,-0.000633766,5.02141,7924.123415,1185.636546,379.4036947,,,,,178,0,83,14,48,48,16,9,1,34,9,39,1,0,0,11,9,19,41,8,8193,1540.909,70.037,3,83,511,Tropical,,,,,
4527,Longlands,Zambezi,Mazowe,Marondera,Zimbabwe,,1960,,17,,0.45,2.3,5.1,340,21.5,1547,74,Main,,Sec,,,,,,,,Irrigation,,31.526034,-18.103088,Zimbabwe,1899.774977,14237000,6.22439,-0.000272113,6.22412,22874.28385,2576.553487,1159.449069,,,,,178,0,83,14,48,48,16,9,1,34,9,39,1,0,0,11,9,19,41,8,8193,1540.909,70.037,3,83,511,Tropical,,,,,
4507,Walton,Zambezi,Mazowe,Bindura,Zimbabwe,,1986,,21,,1.4,5.2,3.7,5942,2.8,1086,935,Main,,,,,,,,,,Irrigation,,31.220991,-16.907926,Zimbabwe,1899.774977,14237000,15.8499,-0.0277394,15.8221,571.3858267,2981.159696,4173.623574,,,,,161,1,74,14,46,46,16,9,1,13,7,27,0,0,0,0,9,18,39,8,6549,281.114,34.613,1,67,487,Tropical,,,,,
4510,Arcadia,Zambezi,,,Zimbabwe,,,,30,,0.53,55,103.8,506,344.7,1258,85,Main,,,,,,,,,,Irrigation,,31.012982,-17.007025,Zimbabwe,1899.774977,14237000,7.35193,-0.000618461,7.35131,11887.45935,,,,,,,161,1,74,14,46,46,16,9,1,13,7,27,0,0,0,0,9,18,39,8,6549,281.114,34.613,1,67,487,Tropical,,,,,
4512,Munzi,Zambezi,Mazowe,Bindura,Zimbabwe,,1985,,20,,2.06,3.4,1.7,2323,4.6,1174,375,Main,,,,,,,,,,Irrigation,,31.200331,-17.032537,Zimbabwe,1899.774977,14237000,21.449,-0.0102638,21.4388,2089.771819,3138.070656,6464.425551,,,,,161,1,74,14,46,46,16,9,1,13,7,27,0,0,0,0,9,18,39,8,6549,281.114,34.613,1,67,487,Tropical,,,,,
4514,Machere,Zambezi,Mazowe,Mvurwi,Zimbabwe,,1981,,20,,0.38,1.2,3.2,572,6.7,1318,95,Main,,,,,,,,,,Irrigation,,30.950281,-17.093231,Zimbabwe,1899.774977,14237000,6.22439,-0.000510664,6.22388,12188.81691,2859.44553,1086.589301,,,,,161,1,74,14,46,46,16,9,1,13,7,27,0,0,0,0,9,18,39,8,6549,281.114,34.613,1,67,487,Tropical,,,,,
4515,Masembura,Zambezi,,,Zimbabwe,,,,42,,0.88,27.1,30.8,829,103.7,1264,131,Main,,,,,,,,,,Irrigation,,31.021602,-17.109998,Zimbabwe,1899.774977,14237000,11.3988,-0.00133985,11.3975,8507.519498,588.5496634,517.9237038,,,,,161,1,74,14,46,46,16,9,1,13,7,27,0,0,0,0,9,18,39,8,6549,281.114,34.613,1,67,487,Tropical,,,,,
3198,Muldestausee,,,Bitterfeld,Germany,,1975,,19,303,5.9,135.5,23,288,1491.9,81,71,,,,Main,Sec,,Sec,,,Sec,Flood control,,12.357819,51.655924,Germany,45229.24529,82658000,8.57931,-0.000885072,8.57842,9693.346982,179.4433516,1058.715774,0.0132,,0.1,,196,1,67,8,88,90,16,5,1,37,37,11,1,0,0,22,7,51,77,1,481,9648.226,138.213,6,176,904,Temperate,1794.433516,10587.15774,85.7842,0.002237288,0.864812509
4508,Mondynes,Zambezi,,,Zimbabwe,,,,19,,2.49,4.5,1.8,543,26.3,1449,103,Main,,,,,,,,,,Irrigation,,30.82631,-16.994973,Zimbabwe,1899.774977,14237000,24.4289,-0.00233785,24.4265,10449.30171,3031.850191,7549.306976,,,,,113,6,75,13,44,44,16,9,2,11,6,31,0,0,0,12,10,15,37,3,6832,281.734,29.821,1,70,489,Tropical,,,,,
4506,Cecilmour,Zambezi,Angwa,Mhangura,Zimbabwe,,1981,,24,,0.72,3.8,5.3,159,75.8,1158,70,Main,,,,,,,,,,Irrigation,,30.245457,-16.770704,Zimbabwe,1899.774977,14237000,9.44991,-0.000207295,9.4497,45586.77247,2329.453659,1677.206634,,,,,85,1,78,14,50,50,3,9,2,36,9,38,1,0,0,20,9,21,43,8,6874,2859.092,114.102,6,85,512,Tropical,,,,,
4509,Two Tree,Zambezi,Angwa,Mhangura,Zimbabwe,,1982,,21,,3.84,14.3,3.7,917,49.4,1098,427,Main,,,,,,,,,,Irrigation,,30.045692,-17.003884,Zimbabwe,1899.774977,14237000,33.3869,-0.00462883,33.3823,7212.816198,2663.373977,10227.35607,,,,,85,1,78,14,50,50,3,9,2,36,9,38,1,0,0,20,9,21,43,8,6874,2859.092,114.102,6,85,512,Tropical,,,,,
4511,Firhill,Zambezi,Manyame,Mutorashanga,Zimbabwe,,1985,,20,,0.45,3.7,8.2,1033,11.4,1165,206,Main,,,,,,,,,,Irrigation,,30.605049,-17.011778,Zimbabwe,1899.774977,14237000,6.22439,-0.00159706,6.2228,3897.405232,1833.467321,825.0602945,,,,,85,1,78,14,50,50,3,9,2,36,9,38,1,0,0,20,9,21,43,8,6874,2859.092,114.102,6,85,512,Tropical,,,,,
4516,Mazwikadei,Zambezi,Manyame,Banket,Zimbabwe,,1988,,63,,21.18,365,17.2,4868,237.8,1152,1125,Main,,,,,,,,,,Irrigation,,30.394392,-17.219819,Zimbabwe,1899.774977,14237000,120.387,-0.102847,120.284,1170.544595,960.1207515,20335.35752,,,,,85,1,78,14,50,50,3,9,2,36,9,38,1,0,0,20,9,21,43,8,6874,2859.092,114.102,6,85,512,Tropical,,,,,
4520,Chimwemwe,Zambezi,Manyame,Harare,Zimbabwe,,1971,,18,,0.48,2.5,5.2,268,29.6,1216,101,Main,,,,,,,,,,Irrigation,,30.308907,-17.424552,Zimbabwe,1899.774977,14237000,7.35193,-0.000187822,7.35174,39143.07163,2490.876437,1195.62069,,,,,85,1,78,14,50,50,3,9,2,36,9,38,1,0,0,20,9,21,43,8,6874,2859.092,114.102,6,85,512,Tropical,,,,,
4522,Hale,Zambezi,Manyame,Harare,Zimbabwe,,1978,,16,,1.05,6,5.7,958,19.9,1426,205,Main,,,,,,,,,,Irrigation,,30.849078,-17.663136,Zimbabwe,1899.774977,14237000,13.2399,-0.00296357,13.2369,4467.55096,2302.624553,2417.755781,,,,,85,1,78,14,50,50,3,9,2,36,9,38,1,0,0,20,9,21,43,8,6874,2859.092,114.102,6,85,512,Tropical,,,,,
4523,Darwendale,Zambezi,Manyame,Harare,Zimbabwe,,1976,,28,,75.18,490,6.5,12621,123.1,1342,3969,Main,,,,,,,,,,Irrigation,,30.507187,-17.822663,Zimbabwe,1899.774977,14237000,309.632,-0.769603,308.863,402.326914,1794.822233,134934.7355,,,,,85,1,78,14,50,50,3,9,2,36,9,38,1,0,0,20,9,21,43,8,6874,2859.092,114.102,6,85,512,Tropical,,,,,
4524,Hunyani Poort,Zambezi,Manyame,Harare,Zimbabwe,,1952,,40,,22.81,300,13.2,8103,117.4,1366,2254,Main,,Sec,,,,,,,Sec,Irrigation,,30.772917,-17.885417,Zimbabwe,1899.774977,14237000,127.103,-0.240754,126.862,527.9372305,1220.929564,27849.40335,,,,,85,1,78,14,50,50,3,9,2,36,9,38,1,0,0,20,9,21,43,8,6874,2859.092,114.102,6,85,512,Tropical,,,,,
7212,Biri Stage 1,Zambezi,,Chinhoyi,Zimbabwe,,2001,,37,1480,13.21,174,13.2,14494,38.1,1159,5207,Main,,,,,,,,,,Irrigation,,30.20331,-17.466169,Zimbabwe,1899.774977,14237000,,,,,,,,,,,85,1,78,14,50,50,3,9,2,36,9,38,1,0,0,20,9,21,43,8,6874,2859.092,114.102,6,85,512,Tropical,,,,,
4055,Kafue Gorge,Zambezi,Kafue,Lusaka,Zambia,,1971,,53,,12.95,785,60.6,485222,5.1,945,153294,,Main,,,,,,,,,Hydroelectricity,,28.421701,-15.808944,Zambia,3689.250826,16854000,83.5821,-116.849,-33.267,0.715300088,375.3326588,4860.557931,,226.5992204,,754.3034847,105,2,91,13,45,58,3,9,4,64,6,31,0,0,0,46,10,19,48,8,1640,5032.746,32.168,1,56,579,Tropical,,,,,
6579,Tinaroo Falls,,,,Australia,,1958,,47,533,31.55,407,12.9,17927,72,673,537,Main,Sec,Sec,,Sec,,,,,,Irrigation,,145.548124,-17.164192,Australia,44648.70991,24585000,162.15,-0.0250202,162.125,6480.763543,1591.861056,50223.21632,1.6,,5.579,,706,98,121,13,109,145,1,9,6,62,0,0,0,0,0,42,8,46,78,1,1098,6.592,823.622,17,230,957,Tropical,285.3308937,9002.189697,29.05986736,0.050713154,0.398045091
4051,Mulungushi,Zambezi,Lusemfwa,Broken Hill,Zambia,,1924,,47,,27.78,41.4,1.5,20362,6.4,1057,4356,,Main,,,,,,,,,Hydroelectricity,,28.825685,-14.69609,Zambia,3689.250826,16854000,147.368,-2.38663,144.981,61.74731735,3843.972571,106785.558,,8.432577653,,28.07036449,138,0,66,14,54,54,16,9,2,31,4,35,0,0,0,18,10,16,46,8,3284,333.105,37.121,1,67,579,Tropical,,,,,
4057,Kudzwe,Zambezi,,Karoi,Zimbabwe,,1976,,18,,1.72,2.1,1.2,713,9.3,1163,326,Main,,Sec,,,,,,,,Irrigation,,29.423424,-16.878949,Zimbabwe,1899.774977,14237000,18.3205,-0.00153693,18.319,11920.19155,3914.559093,6733.04164,,,,,74,10,98,14,47,47,16,9,2,8,3,13,0,0,0,64,10,23,41,8,10916,79.352,18.258,0,54,516,Tropical,,,,,
4058,Bert Hacking,Zambezi,Mapfure,Karoi,Zimbabwe,,1978,,16,,1.31,4.4,3.4,165,84.6,1200,79,Main,,,,,,,,,,Irrigation,,29.635533,-17.068736,Zimbabwe,1899.774977,14237000,14.9973,-0.000343219,14.997,43696.00751,2907.326706,3808.597985,,,,,62,2,72,13,46,45,16,9,2,46,10,47,0,0,0,8,9,15,38,8,4513,1457.656,31.438,1,81,516,Tropical,,,,,
4049,Mita Hills,Zambezi,Lusemfwa,Kabwe,Zambia,,,,,,58.77,1518.5,25.8,64845,74.3,1106,7559,,,,,,,,,,,,,29.117373,-14.234235,Zambia,3689.250826,16854000,257.384,-14.7801,242.604,17.41422588,,,,,,,203,0,62,14,59,62,3,9,2,75,11,52,1,0,0,16,10,19,51,8,2001,136.902,15.213,1,59,579,Tropical,,,,,
4061,Ngondoma,Zambezi,Mapfure,Kadoma,Zimbabwe,,1967,,22,,1.27,7.5,5.9,2016,11.8,1011,1072,Main,,Sec,,,,,,,,Irrigation,,29.412961,-18.458002,Zimbabwe,1899.774977,14237000,14.9973,-0.0064989,14.9908,2307.667451,2631.20595,3341.631557,,,,,62,0,52,14,44,44,3,9,,51,11,53,0,0,0,1,9,12,37,8,2936,845.892,33.797,1,86,516,Tropical,,,,,
4059,Suri Suri,Zambezi,Mapfure,Chegutu,Zimbabwe,,1971,,17,,1.97,10,5.1,448,70.8,1118,224,Main,,Sec,,,,,,,,Irrigation,,29.976042,-18.086284,Zimbabwe,1899.774977,14237000,20.6823,-0.00111997,20.6812,18466.83393,2560.947997,5045.067554,,,,,70,0,47,14,47,47,3,9,,52,11,51,1,0,0,3,9,17,40,8,4982,415.187,34.781,1,84,516,Tropical,,,,,
4525,Henry Hallam,Zambezi,Mapfure,Harare,Zimbabwe,,1973,,18,,0.54,9.3,17.2,630,46.8,1166,292,Main,,Sec,,,,,,,,Irrigation,,30.17208,-17.982335,Zimbabwe,1899.774977,14237000,7.35193,-0.000650089,7.35128,11309.11306,958.2140601,517.4355925,,,,,70,0,47,14,47,47,3,9,,52,11,51,1,0,0,3,9,17,40,8,4982,415.187,34.781,1,84,516,Tropical,,,,,
4528,Blackmore Vale,Zambezi,Mapfure,Chegutu,Zimbabwe,,1982,,23,,0.09,17.5,194.4,5,10000,1143,2,Main,,,,,,,,,,Irrigation,,30.01375,-18.144583,Zimbabwe,1899.774977,14237000,2.21259,-5.32E-07,2.21258,4159003.759,,,,,,,70,0,47,14,47,47,3,9,,52,11,51,1,0,0,3,9,17,40,8,4982,415.187,34.781,1,84,516,Tropical,,,,,
4529,Clifton ORS,Zambezi,Mapfure,Chegutu,Zimbabwe,,1987,,19,,0.99,11,11.1,14,2491.5,1195,7,,,Main,,,,,,,,Water supply,,30.277083,-18.177748,Zimbabwe,1899.774977,14237000,12.331,-9.23E-06,12.331,1335969.664,1355.32397,1341.77073,,,,,70,0,47,14,47,47,3,9,,52,11,51,1,0,0,3,9,17,40,8,4982,415.187,34.781,1,84,516,Tropical,,,,,
4060,Claw,Zambezi,Mapfure,Kadoma,Zimbabwe,,1973,,28,,9.18,67.3,7.3,4672,45.7,1100,2436,Main,,Sec,,,,,,,,Irrigation,,29.869446,-18.448011,Zimbabwe,1899.774977,14237000,64.5776,-0.0780875,64.4995,826.9902353,2046.501186,18786.88089,,,,,62,0,36,14,44,44,3,2,1,81,17,65,1,0,0,0,9,11,37,8,3349,167.076,52.334,1,88,516,Tropical,,,,,
4062,Doreens Pride,Zambezi,Mapfure,Kadoma,Zimbabwe,,,,,,0.63,5.3,8.4,112,150.1,1134,59,Main,,,,,,,,,,Irrigation,,29.975335,-18.553403,Zimbabwe,1899.774977,14237000,8.42323,-8.83E-05,8.42314,95393.31823,,,,,,,62,0,36,14,44,44,3,2,1,81,17,65,1,0,0,0,9,11,37,8,3349,167.076,52.334,1,88,516,Tropical,,,,,
4054,Itezhi-Tezhi,Zambezi,Kafue,Lusaka,Zambia,,1978,,70,,328.54,5700,17.3,556047,32.5,1029,106966,,Main,,,,,,,,,Hydroelectricity,,26.014517,-15.764559,Zambia,3689.250826,16854000,930.223,-284.445,645.778,3.270308847,1349.997544,443528.1931,,342.96642,,1141.666619,82,1,32,14,50,63,3,9,4,81,7,32,0,0,0,49,10,20,51,8,992,2745.892,25.304,1,51,579,Tropical,,,,,
4533,Ngesi,Zambezi,Mapfure,Chegutu,Zimbabwe,,1945,,22,,4.74,26.8,5.7,2748,30.9,1253,1415,Main,,,,,,,,,,Irrigation,,30.38631,-18.706257,Zimbabwe,1899.774977,14237000,39.1248,-0.024522,39.1003,1595.49792,2645.564487,12539.97567,,,,,67,0,36,14,44,44,12,9,2,47,8,51,0,0,0,1,9,12,37,8,2705,140.568,22.375,2,82,516,Tropical,,,,,
4063,Rhino,Zambezi,Mapfure,Kwekwe,Zimbabwe,,,,,,0.23,2.5,10.9,240,33,1127,133,,,,,,,,,,,,,29.621387,-18.828632,Zimbabwe,1899.774977,14237000,3.71106,-6.41E-05,3.711,57894.85179,,,,,,,69,0,42,14,43,43,12,9,2,47,9,59,1,0,0,1,9,12,37,8,2385,294.745,43.384,2,93,516,Tropical,,,,,
4064,Dutchman's Pool,Zambezi,Mapfure,Kwekwe,Zimbabwe,,1954,,22,,0.64,7,10.9,7304,3,1171,4362,Main,,Sec,,,,,,,,Irrigation,,29.849683,-18.863948,Zimbabwe,1899.774977,14237000,8.42323,-0.0174016,8.40583,484.0491679,2020.150189,1292.896121,,,,,69,0,42,14,43,43,12,9,2,47,9,59,1,0,0,1,9,12,37,8,2385,294.745,43.384,2,93,516,Tropical,,,,,
4070,Cactus Poort,Zambezi,Mapfure,Kwekwe,Zimbabwe,,1944,,18,,0.5,3.6,7.2,2606,4.4,1208,1242,Main,,Sec,,,Sec,,,,,Irrigation,,29.783184,-19.049782,Zimbabwe,1899.774977,14237000,7.35193,-0.00421265,7.34772,1745.203138,2496.579893,1248.289947,,,,,69,0,42,14,43,43,12,9,2,47,9,59,1,0,0,1,9,12,37,8,2385,294.745,43.384,2,93,516,Tropical,,,,,
4071,Whitewaters,Zambezi,Mapfure,Gweru,Zimbabwe,,1948,,15,,1.05,4.9,4.7,737,21.1,1354,295,,,Main,,,,,,,,Water supply,,29.994792,-19.328902,Zimbabwe,1899.774977,14237000,13.2399,-0.00143386,13.2384,9233.74667,2991.447723,3141.020109,,,,,69,0,42,14,43,43,12,9,2,47,9,59,1,0,0,1,9,12,37,8,2385,294.745,43.384,2,93,516,Tropical,,,,,
4537,Range,Zambezi,Mapfure,Chivu,Zimbabwe,,1968,,15,,1.14,5.4,4.7,190,90.1,1469,65,,,Main,,,,,,,,Water supply,,31.011042,-19.000382,Zimbabwe,1899.774977,14237000,13.2399,-0.000346918,13.2395,38164.35008,2368.890177,2700.534802,,,,,69,0,42,14,43,43,12,9,2,47,9,59,1,0,0,1,9,12,37,8,2385,294.745,43.384,2,93,516,Tropical,,,,,
4538,Sebakwe,Zambezi,Mapfure,Kwekwe,Zimbabwe,,1957,,47,,21.59,265.7,12.3,4314,195.3,1264,2666,Main,,Sec,,,,,,,Sec,Irrigation,,30.223869,-19.019034,Zimbabwe,1899.774977,14237000,122.078,-0.113993,121.964,1070.925408,,,,,,,69,0,42,14,43,43,12,9,2,47,9,59,1,0,0,1,9,12,37,8,2385,294.745,43.384,2,93,516,Tropical,,,,,
4065,Dzibadziba,Zambezi,Gwai,Lupane,Zimbabwe,,,,,,0.68,0.5,0.7,801,2,1024,590,,,,,,,,,,,,,28.083025,-18.951748,Zimbabwe,1899.774977,14237000,9.44991,-0.00169245,9.44822,5583.5682,,,,,,,38,0,44,14,35,35,3,9,,53,11,47,0,0,0,24,9,10,29,1,1152,996.867,48.548,2,78,516,Tropical,,,,,
4066,Janeke,Zambezi,Gwai,Lupane,Zimbabwe,,,,,,0.49,0.5,1,607,2.6,1077,429,,,,,,,,,,,,,28.295454,-18.971148,Zimbabwe,1899.774977,14237000,7.35193,-0.000225568,7.35171,32592.96531,,,,,,,38,0,44,14,35,35,3,9,,53,11,47,0,0,0,24,9,10,29,1,1152,996.867,48.548,2,78,516,Tropical,,,,,
4067,Mpagama,Zambezi,Gwai,Lupane,Zimbabwe,,,,,,0.39,0.5,1.3,523,3,1090,363,,,,,,,,,,,,,28.382053,-18.989732,Zimbabwe,1899.774977,14237000,6.22439,-0.000678769,6.22371,9170.115312,,,,,,,38,0,44,14,35,35,3,9,,53,11,47,0,0,0,24,9,10,29,1,1152,996.867,48.548,2,78,516,Tropical,,,,,
4068,Zwelabo,Zambezi,Gwai,Lupane,Zimbabwe,,,,,,0.15,0.9,6,382,7.5,1116,258,,,,,,,,,,,,,28.499061,-19.009932,Zimbabwe,1899.774977,14237000,2.21259,-0.000148191,2.21244,14930.66381,,,,,,,38,0,44,14,35,35,3,9,,53,11,47,0,0,0,24,9,10,29,1,1152,996.867,48.548,2,78,516,Tropical,,,,,
4069,Lake Alice,Zambezi,Gwai,Lupane,Zimbabwe,,,,,,0.38,0.5,1.3,1231,1.3,1046,885,,,,,,,,,,,,,28.219613,-19.03186,Zimbabwe,1899.774977,14237000,6.22439,-0.00172908,6.22266,3599.827654,,,,,,,38,0,44,14,35,35,3,9,,53,11,47,0,0,0,24,9,10,29,1,1152,996.867,48.548,2,78,516,Tropical,,,,,
4077,Pampoenpoort,Zambezi,Gwai,Bulawayo,Zimbabwe,,1970,,22,,0.78,8.6,11,745,36.6,1203,542,Main,,,,,,,,,,Irrigation,,28.590144,-19.86111,Zimbabwe,1899.774977,14237000,10.4399,-0.00156374,10.4383,6676.237738,1781.56726,1389.622463,,,,,38,0,44,14,35,35,3,9,,53,11,47,0,0,0,24,9,10,29,1,1152,996.867,48.548,2,78,516,Tropical,,,,,
4078,Ngwenya,Zambezi,Gwai,Bulawayo,Zimbabwe,,,,,,0.61,1.4,2.3,79,56.2,1343,54,Main,,,,,,,,,,Irrigation,,28.885556,-19.919249,Zimbabwe,1899.774977,14237000,8.42323,-4.40E-05,8.42319,191437.0455,,,,,,,38,0,44,14,35,35,3,9,,53,11,47,0,0,0,24,9,10,29,1,1152,996.867,48.548,2,78,516,Tropical,,,,,
4080,Fundisi,Zambezi,Gwai,Bulawayo,Zimbabwe,,,,16,,0.34,1,2.9,489,6.5,1259,343,Main,,,,,,,,,,Irrigation,,28.649686,-19.94785,Zimbabwe,1899.774977,14237000,5.02204,-0.000383288,5.02166,13102.52343,3923.627746,1334.033434,,,,,38,0,44,14,35,35,3,9,,53,11,47,0,0,0,24,9,10,29,1,1152,996.867,48.548,2,78,516,Tropical,,,,,
4081,Bonisa,Zambezi,Gwai,Bulawayo,Zimbabwe,,,,,,0.63,0.9,1.4,34,83.9,1212,28,,,,,,,,,,,,,28.376272,-20.003246,Zimbabwe,1899.774977,14237000,8.42323,-4.12E-06,8.42323,2044473.301,,,,,,,38,0,44,14,35,35,3,9,,53,11,47,0,0,0,24,9,10,29,1,1152,996.867,48.548,2,78,516,Tropical,,,,,
4083,Lower Umgusa,Zambezi,Gwai,Bulawayo,Zimbabwe,,1936,,20,,0.24,1.3,5.4,695,5.9,1237,481,Main,,,,,,,,,,Irrigation,,28.527968,-20.028531,Zimbabwe,1899.774977,14237000,3.71106,-0.000567375,3.7105,6540.75347,3508.1451,841.954824,,,,,38,0,44,14,35,35,3,9,,53,11,47,0,0,0,24,9,10,29,1,1152,996.867,48.548,2,78,516,Tropical,,,,,
4084,Upper Umgusa,Zambezi,Gwai,Bulawayo,Zimbabwe,,1947,,16,,0.61,3.1,5.1,589,16.7,1267,404,Main,,,,,,,,,,Irrigation,,28.566387,-20.054449,Zimbabwe,1899.774977,14237000,8.42323,-0.000787555,8.42244,10695.4181,3290.935646,2007.470744,,,,,38,0,44,14,35,35,3,9,,53,11,47,0,0,0,24,9,10,29,1,1152,996.867,48.548,2,78,516,Tropical,,,,,
4086,Khami,Zambezi,Gwai,Bulawayo,Zimbabwe,,1928,,26,,0.7,3.4,4.9,531,20.3,1306,400,,,Main,,,,,,,,Water supply,,28.429892,-20.149088,Zimbabwe,1899.774977,14237000,9.44991,-0.000930816,9.44898,10152.28574,3523.843223,2466.690256,,,,,38,0,44,14,35,35,3,9,,53,11,47,0,0,0,24,9,10,29,1,1152,996.867,48.548,2,78,516,Tropical,,,,,
4072,Insukamini,Zambezi,Gwai,Gweru,Zimbabwe,,1987,,18,,1.93,7.8,4,577,42.9,1296,227,Main,,,,,,,,,,Irrigation,,29.591329,-19.374368,Zimbabwe,1899.774977,14237000,19.9057,-0.00153018,19.9042,13008.731,3208.861105,6193.101933,,,,,59,0,45,14,40,40,12,9,,32,8,37,0,0,0,0,9,9,34,8,2612,224.395,49.104,1,84,516,Tropical,,,,,
4073,Anchor Yeast,Zambezi,Gwai,Gweru,Zimbabwe,,1975,,15,,0.18,3.2,17.8,109,93.1,1374,37,Main,,,,,,,,,,Irrigation,,29.740552,-19.513663,Zimbabwe,1899.774977,14237000,3.71106,-4.40E-05,3.71102,84342.27273,786.2523017,141.5254143,,,,,59,0,45,14,40,40,12,9,,32,8,37,0,0,0,0,9,9,34,8,2612,224.395,49.104,1,84,516,Tropical,,,,,
4074,Tiyabenzi,Zambezi,Gwai,Gweru,Zimbabwe,,1972,,27,,2.79,14.4,5.2,1105,41.3,1272,802,,,Sec,,,,,,,Main,Other,,29.297917,-19.581787,Zimbabwe,1899.774977,14237000,26.5843,-0.00466184,26.5796,5702.533763,2671.776134,7454.255414,,,,,56,0,44,14,39,39,12,9,,40,9,45,0,0,0,0,9,10,33,8,2188,111.649,17.692,0,84,516,Tropical,,,,,
4536,Bue Maria,Indian Ocean Coast,Pungoe,Nhamatanda,Mozambique,,,,53,,19.13,402,21,136817,9.3,21,8433,Main,Sec,,,,,,,,,Irrigation,,34.542569,-18.912928,Mozambique,1136.102564,28649000,111.373,-7.73897,103.634,14.39119159,,,,,,,470,0,61,18,67,67,3,9,4,79,4,63,0,0,0,74,8,18,56,8,2602,121.089,13.197,0,61,418,Tropical,,,,,
4539,Chicamba Real,Indian Ocean Coast,Buzi,Chimoio,Mozambique,,1959,,75,,120.42,1540,12.8,56867,85.9,622,2869,,Main,,Sec,,,,,,,Hydroelectricity,,33.142843,-19.156395,Mozambique,1136.102564,28649000,440.174,-4.40011,435.774,100.0370445,1014.971427,122222.8592,,37.58059391,,125.098281,362,1,95,13,61,61,2,9,6,91,4,43,1,0,0,3,8,21,50,8,4647,1330.248,46.653,1,81,430,Tropical,,,,,
4544,Ratelshoek,Indian Ocean Coast,Buzi,Chipinge,Zimbabwe,,1985,,26,,0.31,2.9,9.4,487,18.9,771,58,Main,,,,,,,,,,Irrigation,,32.826205,-20.241912,Zimbabwe,1899.774977,14237000,5.02204,-0.000460468,5.02158,10906.3822,1356.702526,420.5777831,,,,,362,1,95,13,61,61,2,9,6,91,4,43,1,0,0,3,8,21,50,8,4647,1330.248,46.653,1,81,430,Tropical,,,,,
4546,Bangazaan,Indian Ocean Coast,Buzi,Chipinge,Zimbabwe,,1987,,27,,0.38,2.3,6.1,578,12.6,755,69,,,Main,,,,,,,,Water supply,,32.832439,-20.255934,Zimbabwe,1899.774977,14237000,6.22439,-0.000468862,6.22392,13275.5267,1734.954357,659.2826557,,,,,362,1,95,13,61,61,2,9,6,91,4,43,1,0,0,3,8,21,50,8,4647,1330.248,46.653,1,81,430,Tropical,,,,,
4531,Eirene,Save,,Marondera,Zimbabwe,,1987,,20,,0.36,2.4,6.7,576,13.2,1472,125,Main,,,,,,,,,,Irrigation,,31.644031,-18.275331,Zimbabwe,1899.774977,14237000,6.22439,-0.000538061,6.22385,11568.18651,2298.11154,827.3201544,,,,,176,1,87,14,46,46,16,9,3,33,9,38,1,0,0,11,9,16,39,8,6650,1934.968,44.583,2,84,516,Tropical,,,,,
4532,Lesapi,Save,,Mutare,Zimbabwe,,1972,,41,,5.71,68,11.9,6243,34.5,1371,647,Main,,Sec,,,,,,,,Irrigation,,32.085389,-18.577005,Zimbabwe,1899.774977,14237000,45.1812,-0.0575524,45.1237,785.0445855,1219.072709,6960.905168,,,,,176,1,87,14,46,46,16,9,3,33,9,38,1,0,0,11,9,16,39,8,6650,1934.968,44.583,2,84,516,Tropical,,,,,
4534,Smallbridge,Save,Odzi,Mutare,Zimbabwe,,1985,,30,,28.86,15.3,0.5,23007,2.1,1093,1398,,,Main,,,,,,,,Water supply,,32.489193,-18.776716,Zimbabwe,1899.774977,14237000,151.697,-0.858897,150.838,176.6183838,2050.047899,59164.38237,,,,,176,1,87,14,46,46,16,9,3,33,9,38,1,0,0,11,9,16,39,8,6650,1934.968,44.583,2,84,516,Tropical,,,,,
4535,Odzani,Save,Odzi,Mutare,Zimbabwe,,1966,,29,,0.47,6.7,14.3,527,40.3,1369,27,,,Main,,,,,,,,Water supply,,32.689691,-18.830851,Zimbabwe,1899.774977,14237000,7.35193,-0.000690386,7.35124,10649.01374,714.0198313,335.5893207,,,,,176,1,87,14,46,46,16,9,3,33,9,38,1,0,0,11,9,16,39,8,6650,1934.968,44.583,2,84,516,Tropical,,,,,
4541,Ruti,Save,Devuri,Masvingo,Zimbabwe,,1976,,34,,14.87,132,8.9,10951,38.2,936,2646,Main,,,,,,,,,,Irrigation,,31.735044,-19.575983,Zimbabwe,1899.774977,14237000,92.5368,-0.337304,92.1995,274.3424329,1568.090578,23317.50689,,,,,176,1,87,14,46,46,16,9,3,33,9,38,1,0,0,11,9,16,39,8,6650,1934.968,44.583,2,84,516,Tropical,,,,,
4547,Siya,Save,Runde,Masvingo,Zimbabwe,,1976,,66,,7.49,109,14.6,2057,168,758,502,Main,,,,,,,,,,Irrigation,,31.613542,-20.263287,Zimbabwe,1899.774977,14237000,55.4477,-0.0227211,55.4249,2440.361602,1250.580316,9366.846567,,,,,176,1,87,14,46,46,16,9,3,33,9,38,1,0,0,11,9,16,39,8,6650,1934.968,44.583,2,84,516,Tropical,,,,,
4548,Nyatare,Save,Runde,Masvingo,Zimbabwe,,1985,,16,,0.44,3,6.8,585,16.3,766,145,Main,,Sec,,,,,,,,Irrigation,,31.45541,-20.324749,Zimbabwe,1899.774977,14237000,6.22439,-0.00050975,6.22388,12210.6719,2102.394461,925.0535628,,,,,82,1,49,13,36,39,3,9,3,49,10,47,1,0,0,13,9,14,33,2,4338,1359.812,32.931,1,80,514,Tropical,,,,,
4550,Manjirenji,Save,Runde,Chiredzi,Zimbabwe,,1967,,51,,19.25,285,14.8,5927,152.5,512,1518,Main,,,,,,,,,,Irrigation,,31.60907,-20.625444,Zimbabwe,1899.774977,14237000,112.242,-0.159223,112.082,704.9358447,1103.894704,21249.97305,,,,,82,1,49,13,36,39,3,9,3,49,10,47,1,0,0,13,9,14,33,2,4338,1359.812,32.931,1,80,514,Tropical,,,,,
4545,Kyle,Save,Runde,Masvingo,Zimbabwe,,1960,,67,,81.86,1425,17.4,16365,276.1,1074,3940,Main,,,,,,,,,,Irrigation,,31.033669,-20.246238,Zimbabwe,1899.774977,14237000,329.99,-0.688637,329.302,479.1929565,866.1823817,70905.68977,,,,,114,2,57,14,44,44,12,9,2,45,10,46,1,0,0,3,9,15,38,8,5761,364.829,45.489,1,85,516,Tropical,,,,,
4551,Bangala,Save,Runde,Masvingo,Zimbabwe,,1963,,51,,9.33,130,13.9,23411,17.6,536,5855,Main,,,,,,,,,,Irrigation,,31.230208,-20.692906,Zimbabwe,1899.774977,14237000,65.1006,-0.626369,64.4743,103.9333045,1327.477508,12385.36515,,,,,114,2,57,14,44,44,12,9,2,45,10,46,1,0,0,3,9,15,38,8,5761,364.829,45.489,1,85,516,Tropical,,,,,
4552,Esquilingwe,Save,Runde,Triangle,Zimbabwe,,1961,,15,,0.95,11.1,11.7,26589,1.3,458,6783,Main,,,,,,,,,,Irrigation,,31.276356,-20.835763,Zimbabwe,1899.774977,14237000,12.331,-0.218867,12.1122,56.34015178,1788.331907,1698.915312,,,,,114,2,57,14,44,44,12,9,2,45,10,46,1,0,0,3,9,15,38,8,5761,364.829,45.489,1,85,516,Tropical,,,,,
4540,Driefontein,Save,Runde,Chtsworth,Zimbabwe,,,,,,1.27,38.6,30.4,428,286,1465,180,,,,,,,,,,,,,30.761206,-19.381074,Zimbabwe,1899.774977,14237000,14.9973,-0.00157609,14.9957,9515.509901,,,,,,,103,1,60,14,41,41,12,9,1,36,8,46,0,0,0,2,9,15,35,8,4547,234.193,29.523,1,78,516,Tropical,,,,,
4542,Umshandige,Indian Ocean Coast,Runde,Masvingo,Zimbabwe,,1938,,38,,9.3,38.3,4.1,5609,21.7,994,1688,Main,,,,,,,,,,Irrigation,,30.470399,-19.958659,Zimbabwe,1899.774977,14237000,65.1006,-0.0923375,65.0083,705.0288344,2337.670299,21740.33378,,,,,103,1,60,14,41,41,12,9,1,36,8,46,0,0,0,2,9,15,35,8,4547,234.193,29.523,1,78,516,Tropical,,,,,
4543,Mushandike,Save,Runde,Zvishavane,Zimbabwe,,,,38,,3.7,38.3,10.4,1193,101.8,940,331,Main,,,,,,,,,,Irrigation,,30.626965,-20.147386,Zimbabwe,1899.774977,14237000,32.7292,-0.00441875,32.7248,7406.891089,1393.475905,5155.860849,,,,,103,1,60,14,41,41,12,9,1,36,8,46,0,0,0,2,9,15,35,8,4547,234.193,29.523,1,78,516,Tropical,,,,,
4549,Mbindangombe,Save,Runde,Masvingo,Zimbabwe,,1988,,23,,1.44,22.6,15.7,354,202.4,861,112,Main,,Sec,,,,,,,,Irrigation,,30.621778,-20.419841,Zimbabwe,1899.774977,14237000,15.8499,-0.000594313,15.8493,26669.28033,,,,,,,103,1,60,14,41,41,12,9,1,36,8,46,0,0,0,2,9,15,35,8,4547,234.193,29.523,1,78,516,Tropical,,,,,
4553,Tokwe Weir,Save,Runde,Triangle,Zimbabwe,,1965,,16,,1.01,9.8,9.7,27175,1.1,442,7789,Main,,,,,,,,,,Irrigation,,31.159242,-21.034118,Zimbabwe,1899.774977,14237000,12.331,-0.107804,12.2232,114.3835108,1889.563008,1908.458638,,,,,103,1,60,14,41,41,12,9,1,36,8,46,0,0,0,2,9,15,35,8,4547,234.193,29.523,1,78,516,Tropical,,,,,
7213,Tokwe Mukorsi,Save,,Triangle,Zimbabwe,,2015,,89,351,73.23,1802.6,24.6,25281,226.1,637,7135,Main,Sec,Sec,,,,,,,,Irrigation,,30.897881,-20.723063,Zimbabwe,1899.774977,14237000,,,,,,,,,,,103,1,60,14,41,41,12,9,1,36,8,46,0,0,0,2,9,15,35,8,4547,234.193,29.523,1,78,516,Tropical,,,,,
4075,Gwenoro,Save,Runde,Gweru,Zimbabwe,,1958,,30,,3.81,32,8.4,1518,66.8,1233,417,,,Main,,,,,,,,Water supply,,29.878072,-19.76701,Zimbabwe,1899.774977,14237000,33.3869,-0.0138612,33.3731,2408.658702,1789.645422,6818.549058,,,,,100,1,62,14,40,40,16,9,1,35,5,38,0,0,0,0,9,14,33,8,4938,267.229,43.238,2,80,516,Tropical,,,,,
4076,Amapongokwe,Save,Runde,Gweru,Zimbabwe,,1980,,28,,5.09,40,7.9,664,191,1233,180,,,Main,,,,,,,,Water supply,,29.842708,-19.791924,Zimbabwe,1899.774977,14237000,41.5832,-0.00242775,41.5808,17128.28751,1750.405016,8909.561531,,,,,100,1,62,14,40,40,16,9,1,35,5,38,0,0,0,0,9,14,33,8,4938,267.229,43.238,2,80,516,Tropical,,,,,
4088,Mabgwe Matemba,Save,Runde,Zvishavane,Zimbabwe,,1967,,17,,0.43,2.3,5.3,73,99.9,1028,26,Main,,,,,,,,,,Irrigation,,29.929857,-20.222827,Zimbabwe,1899.774977,14237000,6.22439,-3.89E-05,6.22435,160010.0257,,,,,,,100,1,62,14,40,40,16,9,1,35,5,38,0,0,0,0,9,14,33,8,4938,267.229,43.238,2,80,516,Tropical,,,,,
4085,Palawan,Save,Runde,Gweru,Zimbabwe,,1979,,52,,4.78,74,15.5,4003,58.6,1106,1324,,,Sec,,,,,,,Main,Other,,29.809781,-20.130959,Zimbabwe,1899.774977,14237000,39.7442,-0.047239,39.697,841.3429581,1300.218165,6215.042829,,,,,79,0,56,14,39,39,12,9,,41,8,48,0,0,0,0,9,9,33,8,4459,99.862,22.049,1,78,516,Tropical,,,,,
4089,Mchingwe,Save,Runde,Zvishavane,Zimbabwe,,,,,,0.11,3.7,33.6,6,1955.4,1146,3,,,,,,,,,,,,,29.559734,-20.247885,Zimbabwe,1899.774977,14237000,2.21259,-7.94E-07,2.21258,2786637.28,,,,,,,79,0,56,14,39,39,12,9,,41,8,48,0,0,0,0,9,9,33,8,4459,99.862,22.049,1,78,516,Tropical,,,,,
4576,Massingir,Limpopo,Elefantes,Chokwe,Mozambique,South Africa,1976,,48,,118.86,2260,19,108477,66.1,121,69498,Main,Sec,,Sec,,,,,,,Irrigation,,32.143353,-23.872949,Mozambique,1136.102564,28649000,91.0832,-18.3333,72.7498,4.968183579,1257.316788,149444.6734,,,,,31,1,56,13,31,45,16,9,2,33,15,43,3,0,0,36,8,16,37,7,7144,4249.23,60.982,4,96,454,Subtropical,,,,,
4577,Phalaborwa Barrage,Limpopo,Elefantes,Phalaborwa,South Africa,,1974,,21,,1.18,5.7,4.8,47338,0.4,318,47628,Main,,Sec,,,,,,,,Irrigation,,31.142708,-24.071656,South Africa,12294.87614,57010000,2.45123,-0.101873,2.34936,24.06162575,6103.081777,7201.636497,,,,,91,1,83,13,43,45,3,9,1,24,18,43,2,0,0,29,6,15,38,8,8534,3235.302,59.474,4,98,619,Subtropical,,,,,
4578,Tours,Limpopo,,,South Africa,,,,,,0.51,16.1,31.6,172,296.8,763,53,,,,,,,,,,,,,30.254488,-24.099427,South Africa,12294.87614,57010000,1.23115,-3.09E-05,1.23112,39843.04207,,,,,,,91,1,83,13,43,45,3,9,1,24,18,43,2,0,0,29,6,15,38,8,8534,3235.302,59.474,4,98,619,Subtropical,,,,,
4579,Jan Wassenaar,Limpopo,Elefantes,Klaserie,South Africa,,1979,,20,,0.94,6.1,6.5,765,25.3,539,179,Main,,,,,,,,,,Irrigation,,31.071429,-24.524688,South Africa,12294.87614,57010000,1.95482,-0.000209231,1.95461,9342.879401,1582.284024,1487.346983,,,,,91,1,83,13,43,45,3,9,1,24,18,43,2,0,0,29,6,15,38,8,8534,3235.302,59.474,4,98,619,Subtropical,,,,,
4580,Blyderivierspoort,Limpopo,Elefantes,Pilgrims Rest,South Africa,,1979,,71,,2.28,55.6,24.4,4651,37.9,676,1316,Main,,Sec,,,,,,,,Irrigation,,30.788542,-24.535946,South Africa,12294.87614,57010000,4.08917,-0.00396421,4.08521,1031.522043,885.5723295,2019.104911,,,,,91,1,83,13,43,45,3,9,1,24,18,43,2,0,0,29,6,15,38,8,8534,3235.302,59.474,4,98,619,Subtropical,,,,,
4582,Ohrigstad,Limpopo,Elefantes,Pilgrims Rest,South Africa,,1979,,52,,0.82,14.4,17.6,334,136.7,1385,87,Main,,,,,,,,,,Irrigation,,30.634195,-24.935741,South Africa,12294.87614,57010000,1.78185,-6.32E-05,1.78178,28193.82911,556.7717121,456.5528039,,,,,91,1,83,13,43,45,3,9,1,24,18,43,2,0,0,29,6,15,38,8,8534,3235.302,59.474,4,98,619,Subtropical,,,,,
4123,Dap Naude,Limpopo,Elefantes,Pietersburg,South Africa,,1961,,23,,0.11,2.1,19.1,45,148,1537,12,,,Main,,,,,,,,Water supply,,29.966256,-23.81312,South Africa,12294.87614,57010000,0.347136,-1.29E-06,0.347135,269097.6744,467.3231929,51.40555122,,,,,105,0,62,13,44,44,3,9,1,71,4,44,5,0,0,63,8,16,37,8,2206,1007.916,73.237,5,97,597,Subtropical,,,,,
4124,Stanford,Limpopo,Elefantes,Tzaneen,South Africa,,1935,,6,,0.07,0.8,11.4,89,28.5,1387,26,,,,,,,,,,,,,29.977083,-23.90875,South Africa,12294.87614,57010000,0.347136,-2.98E-06,0.347133,116488.5906,330.4220572,23.129544,,,,,105,0,62,13,44,44,3,9,1,71,4,44,5,0,0,63,8,16,37,8,2206,1007.916,73.237,5,97,597,Subtropical,,,,,
4125,Ebenezer,Limpopo,Elefantes,Tzaneen,South Africa,,1958,,61,,3.28,70,21.3,517,429.3,1360,158,Main,,Sec,,,,,,,,Irrigation,,29.984384,-23.938163,South Africa,12294.87614,57010000,5.43204,-0.000251144,5.43179,21629.18485,443.5518033,1454.849915,,,,,105,0,62,13,44,44,3,9,1,71,4,44,5,0,0,63,8,16,37,8,2206,1007.916,73.237,5,97,597,Subtropical,,,,,
4564,Nsami,Limpopo,,,South Africa,,,,24,,4.68,24.4,5.2,1478,52.3,448,350,Main,,,,,,,,,,Irrigation,,30.768733,-23.252072,South Africa,12294.87614,57010000,7.17418,-0.00134887,7.17283,5318.659322,1681.490279,7869.374506,,,,,105,0,62,13,44,44,3,9,1,71,4,44,5,0,0,63,8,16,37,8,2206,1007.916,73.237,5,97,597,Subtropical,,,,,
4565,Middle Letaba,Limpopo,Elefantes,Giyani,South Africa,,1943,,34,,17.55,180.2,10.3,10947,52.2,516,1819,Main,,Sec,,,,,,,,Irrigation,,30.404559,-23.274688,South Africa,12294.87614,57010000,20.1778,-0.0636751,20.1141,316.8868208,1372.367222,24085.04475,,,,,105,0,62,13,44,44,3,9,1,71,4,44,5,0,0,63,8,16,37,8,2206,1007.916,73.237,5,97,597,Subtropical,,,,,
4566,Jachtpad,Limpopo,,,South Africa,,,,13,,0.16,1.9,11.9,80,75.3,621,14,,,,,,,,,,,,,30.223958,-23.469175,South Africa,12294.87614,57010000,0.598812,-3.80E-06,0.598808,157582.1053,1027.197427,164.3515883,,,,,105,0,62,13,44,44,3,9,1,71,4,44,5,0,0,63,8,16,37,8,2206,1007.916,73.237,5,97,597,Subtropical,,,,,
4567,Lorna Dawn,Limpopo,Elefantes,Duiwelskloof,South Africa,,1971,,21,,0.75,11.7,15.6,2222,16.7,675,472,Main,,,,,,,,,,Irrigation,,30.126932,-23.483158,South Africa,12294.87614,57010000,1.78185,-0.00101915,1.78083,1748.368739,1025.661432,769.246074,,,,,105,0,62,13,44,44,3,9,1,71,4,44,5,0,0,63,8,16,37,8,2206,1007.916,73.237,5,97,597,Subtropical,,,,,
4568,Heuningsplaas,Limpopo,,,South Africa,,,,14,,0.19,0.4,2.1,225,5.6,631,39,,,,,,,,,,,,,30.18541,-23.497681,South Africa,12294.87614,57010000,0.598812,-2.16E-05,0.59879,27722.77778,2777.306173,527.6881729,,,,,105,0,62,13,44,44,3,9,1,71,4,44,5,0,0,63,8,16,37,8,2206,1007.916,73.237,5,97,597,Subtropical,,,,,
4569,Neldoret,Limpopo,Elefantes,Duiwelskloof,South Africa,,1964,,,,0.37,1.8,4.9,1524,3.7,655,285,,,,,,,,,,,,,30.14901,-23.561608,South Africa,12294.87614,57010000,1.03295,-0.000247174,1.03271,4179.039867,,,,,,,105,0,62,13,44,44,3,9,1,71,4,44,5,0,0,63,8,16,37,8,2206,1007.916,73.237,5,97,597,Subtropical,,,,,
4570,Modjadji,Limpopo,,,South Africa,,,,24,,0.92,5,5.4,493,32.2,612,80,,,,,,,,,,,,,30.347917,-23.586252,South Africa,12294.87614,57010000,1.95482,-0.000128701,1.95469,15188.84857,1645.360453,1513.731617,,,,,105,0,62,13,44,44,3,9,1,71,4,44,5,0,0,63,8,16,37,8,2206,1007.916,73.237,5,97,597,Subtropical,,,,,
4571,Donkerval,Limpopo,Elefantes,Tzaneen,South Africa,,1969,,16,,0.36,1.7,4.7,1081,5,703,224,,,,,,,,,,,,,30.088532,-23.610954,South Africa,12294.87614,57010000,1.03295,-0.00026228,1.03269,3938.34833,1940.673818,698.6425745,,,,,105,0,62,13,44,44,3,9,1,71,4,44,5,0,0,63,8,16,37,8,2206,1007.916,73.237,5,97,597,Subtropical,,,,,
4572,Altenzur,Limpopo,Elefantes,Duiwelskloof,South Africa,,1957,,19,,0.21,3.5,16.7,558,19.9,767,135,Main,,,,,,,,,,Irrigation,,30.021872,-23.674153,South Africa,12294.87614,57010000,0.598812,-5.67E-05,0.598755,10561.0582,756.1999675,158.8019932,,,,,105,0,62,13,44,44,3,9,1,71,4,44,5,0,0,63,8,16,37,8,2206,1007.916,73.237,5,97,597,Subtropical,,,,,
4573,Hans Mensky,Limpopo,Elefantes,Tzaneen,South Africa,,1935,,10,,0.3,1.3,4.3,463,8.9,803,91,,,,,,,,,,,,,30.106105,-23.748612,South Africa,12294.87614,57010000,0.823765,-8.16E-05,0.823684,10095.15931,1648.677549,494.6032647,,,,,105,0,62,13,44,44,3,9,1,71,4,44,5,0,0,63,8,16,37,8,2206,1007.916,73.237,5,97,597,Subtropical,,,,,
4574,Fanie Botha,Limpopo,Elefantes,Tzaneen,South Africa,,1976,,50,,10.14,160.2,15.8,3211,158.2,714,650,Main,,,,,,,,,,Irrigation,,30.16324,-23.80115,South Africa,12294.87614,57010000,13.0948,-0.00444273,13.0904,2947.466985,722.0337998,7321.42273,,,,,105,0,62,13,44,44,3,9,1,71,4,44,5,0,0,63,8,16,37,8,2206,1007.916,73.237,5,97,597,Subtropical,,,,,
4575,Magoebaskloof,Limpopo,Elefantes,Tzaneen,South Africa,,1970,,43,,0.39,5.6,14.4,281,63.2,831,66,Main,,,,,,,,,,Irrigation,,30.055407,-23.817564,South Africa,12294.87614,57010000,1.03295,-3.74E-05,1.03292,27618.98396,823.5265292,321.1753464,,,,,105,0,62,13,44,44,3,9,1,71,4,44,5,0,0,63,8,16,37,8,2206,1007.916,73.237,5,97,597,Subtropical,,,,,
4560,Vondo,Limpopo,,,South Africa,,,,47,,2.06,30.3,14.7,310,309.9,874,48,Sec,,Main,,,,,,,,Water supply,,30.351524,-22.947985,South Africa,12294.87614,57010000,21.449,-0.000147361,21.4489,145554.1154,953.5862257,1964.387625,,,,,102,0,77,13,40,30,2,9,3,24,12,45,1,0,0,11,8,12,25,3,2648,11527.551,47.906,2,77,556,Tropical,,,,,
4562,NAdoni,,,Thohoyandou,South Africa,,1998,,47,2215,16.09,164,10.2,8395,61.9,489,1421,Main,,,,,,,,,,Irrigation,,30.597312,-22.981325,South Africa,12294.87614,57010000,98.0421,-0.049769,97.9924,1969.943137,1389.876686,22363.11588,,,,,102,0,77,13,40,30,2,9,3,24,12,45,1,0,0,11,8,12,25,3,2648,11527.551,47.906,2,77,556,Tropical,,,,,
4563,Albasini,Limpopo,Elefantes,Louis Trichardt,South Africa,,1975,,34,,2.45,29.7,12.1,2329,40.4,758,514,Main,,,,,,,,,,Irrigation,,30.121875,-23.106821,South Africa,12294.87614,57010000,4.22838,-0.00313147,4.22525,1350.285968,1212.839084,2971.455756,,,,,102,0,77,13,40,30,2,9,3,24,12,45,1,0,0,11,8,12,25,3,2648,11527.551,47.906,2,77,556,Subtropical,,,,,
4554,Manyuchi 2,Limpopo,,Rutenga,Zimbabwe,,1989,,41,,30.94,319,10.3,9489,106.6,625,4733,Main,,,,,,,,,,Irrigation,,30.394792,-21.060373,Zimbabwe,1899.774977,14237000,159.847,-0.259356,159.588,616.3227379,1364.816158,42227.41193,,,,,52,1,47,13,31,31,3,9,4,68,12,57,0,0,0,24,8,15,26,8,2326,284.619,19.025,0,75,507,Tropical,,,,,
4555,Cross,Limpopo,,Messina,South Africa,,1979,,23,,0.41,2,4.9,2941,2.2,478,542,Main,,,,,,,,,,Irrigation,,30.457127,-22.536039,South Africa,12294.87614,57010000,6.22439,-0.00118538,6.22321,5250.965935,3936.201434,1613.842588,,,,,103,0,94,13,38,30,12,9,3,20,12,45,1,0,0,10,8,12,25,8,2698,10776.784,47.95,2,77,571,Tropical,,,,,
4556,Dangadzivha,Limpopo,,Tsipise,South Africa,,,,,,0.35,11.2,32,10,3551.5,556,2,,,,,,,,,,,,,30.224727,-22.629051,South Africa,12294.87614,57010000,6.22439,-2.63E-07,6.22439,23666882.13,,,,,,,103,0,94,13,38,30,12,9,3,20,12,45,1,0,0,10,8,12,25,8,2698,10776.784,47.95,2,77,571,Tropical,,,,,
4557,Luphephe,Limpopo,,Messina,South Africa,,1979,,,,1.28,15.1,11.8,809,59.2,571,153,,,,,,,,,,,,,30.405208,-22.635858,South Africa,12294.87614,57010000,14.9973,-0.000435656,14.9969,34424.63779,,,,,,,103,0,94,13,38,30,12,9,3,20,12,45,1,0,0,10,8,12,25,8,2698,10776.784,47.95,2,77,571,Tropical,,,,,
4558,Nwanedzi,Limpopo,,Messina,South Africa,,1979,,,,0.48,5.6,11.7,648,27.4,589,110,,,,,,,,,,,,,30.399423,-22.636808,South Africa,12294.87614,57010000,7.35193,-0.000163128,7.35177,45068.47384,,,,,,,103,0,94,13,38,30,12,9,3,20,12,45,1,0,0,10,8,12,25,8,2698,10776.784,47.95,2,77,571,Tropical,,,,,
4559,Nzhelele,Limpopo,,Louis Trichardt,South Africa,,1979,,47,,5.24,57.4,11,4804,37.9,627,829,Main,,,,,,,,,,Irrigation,,30.097917,-22.727406,South Africa,12294.87614,57010000,42.1901,-0.00892814,42.1811,4725.519537,1556.78253,8157.540457,,,,,103,0,94,13,38,30,12,9,3,20,12,45,1,0,0,10,8,12,25,8,2698,10776.784,47.95,2,77,571,Tropical,,,,,
4561,Mutshedzi,Limpopo,,,South Africa,,,,,,0.53,0.5,0.9,513,3.1,867,85,,,,,,,,,,,,,30.169792,-22.947835,South Africa,12294.87614,57010000,7.35193,-0.00015822,7.35177,46466.50234,,,,,,,103,0,94,13,38,30,12,9,3,20,12,45,1,0,0,10,8,12,25,8,2698,10776.784,47.95,2,77,571,Tropical,,,,,
4109,Ripple Creek,Limpopo,,Bulawayo,Zimbabwe,,1964,,18,,0.96,4.1,4.3,1576,8.2,669,1074,,,Main,,,,,,,,Water supply,,29.934375,-21.329739,Zimbabwe,1899.774977,14237000,12.331,-0.00287596,12.3282,4287.611789,,,,,,,39,1,39,13,27,27,3,9,4,86,16,67,0,0,0,17,8,15,22,2,1460,92.399,11.438,0,71,516,Tropical,,,,,
4128,Upper Gompies,Limpopo,Elefantes,Zebediela,South Africa,,1935,,,,0.16,2.3,14.4,205,35.6,1059,388,,,,,,,,,,,,,29.313542,-24.285013,South Africa,12294.87614,57010000,0.598812,-1.53E-05,0.598796,39138.03922,,,,,,,29,1,117,14,45,44,16,9,,11,22,44,2,0,0,11,6,14,36,3,8258,2538.74,72.768,4,108,599,Subtropical,,,,,
4129,Lower Gompies,Limpopo,Elefantes,Zebediela,South Africa,,1922,,23,,0.71,9.5,13.4,210,143.4,1034,403,Main,,,,,,,,,,Irrigation,,29.317056,-24.304513,South Africa,12294.87614,57010000,1.60418,-5.07E-05,1.60413,31640.63116,,,,,,,29,1,117,14,45,44,16,9,,11,22,44,2,0,0,11,6,14,36,3,8258,2538.74,72.768,4,108,599,Subtropical,,,,,
4135,Arabie,Limpopo,,,South Africa,,,,33,,12.68,104,8.2,14065,23.4,819,23576,Sec,,Main,,,,,,,,Water supply,,29.427083,-24.781926,South Africa,12294.87614,57010000,15.6802,-0.100299,15.5799,156.3345597,1874.99786,23774.97286,,,,,29,1,117,14,45,44,16,9,,11,22,44,2,0,0,11,6,14,36,3,8258,2538.74,72.768,4,108,599,Subtropical,,,,,
4583,Buffelskloof,Limpopo,Elefantes,Lydenburg,South Africa,,1972,,39,,0.44,5.4,12.3,754,22.7,1287,281,Main,,,,,,,,,,Irrigation,,30.263145,-24.956091,South Africa,12294.87614,57010000,1.03295,-0.000187651,1.03276,5504.633602,1080.855467,475.5764055,,,,,65,0,190,11,56,56,12,9,,25,16,49,2,0,0,9,6,18,47,4,16296,331.189,46.296,3,92,628,Subtropical,,,,,
4118,Beitbridge,Limpopo,,Beitbridge,Zimbabwe,South Africa,1984,,24,,0.46,6.7,14.6,88899,0.2,434,203477,,,Main,,,,,,,,Water supply,,29.988435,-22.224538,Zimbabwe,1899.774977,14237000,6.22439,-0.327544,5.89685,19.00321789,,,,,,,33,0,61,13,22,29,16,9,3,20,11,45,1,0,0,9,8,12,24,8,2689,9712.687,47.48,2,76,549,Tropical,,,,,
4082,Rixon,Limpopo,,Bulawayo,Zimbabwe,,1968,,23,,1.98,9.1,4.6,665,43.4,1236,521,Main,,,,,,,,,,Irrigation,,29.204826,-20.014464,Zimbabwe,1899.774977,14237000,20.6823,-0.00147397,20.6808,14031.69671,2820.007193,5583.614242,,,,,34,1,47,14,29,29,12,9,2,35,14,52,0,0,0,7,8,12,24,8,2634,205.306,12.869,0,69,516,Tropical,,,,,
4090,Upper Ncema,Limpopo,,Bulawayo,Zimbabwe,,1973,,36,,4.29,45.5,10.6,973,148.3,1141,646,,,Main,,,,,,,,Water supply,,28.984308,-20.302083,Zimbabwe,1899.774977,14237000,36.6126,-0.00666985,36.606,5489.268874,1725.378931,7401.875614,,,,,34,1,47,14,29,29,12,9,2,35,14,52,0,0,0,7,8,12,24,8,2634,205.306,12.869,0,69,516,Tropical,,,,,
4091,Ncema,Limpopo,,Bulawayo,Zimbabwe,,1943,,51,,0.27,18.2,67.4,1066,54.1,1093,712,,,Main,,,,,,,,Water supply,,29.01039,-20.356238,Zimbabwe,1899.774977,14237000,5.02204,-0.0010594,5.02098,4740.456862,,,,,,,34,1,47,14,29,29,12,9,2,35,14,52,0,0,0,7,8,12,24,8,2634,205.306,12.869,0,69,516,Tropical,,,,,
4092,Inyankuni,Limpopo,,Bulawayo,Zimbabwe,,1972,,40,,3,81.8,27.3,518,500.7,1138,364,,,Main,,,,,,,,Water supply,,29.121178,-20.365705,Zimbabwe,1899.774977,14237000,27.9885,-0.0018393,27.9867,15216.93035,757.1933782,2271.580135,,,,,34,1,47,14,29,29,12,9,2,35,14,52,0,0,0,7,8,12,24,8,2634,205.306,12.869,0,69,516,Tropical,,,,,
4093,Insiza,Limpopo,,Bulawayo,Zimbabwe,,1976,,44,,11.95,173.5,14.5,2707,203.2,1141,1886,,,Main,,,,,,,,Water supply,,29.245254,-20.367805,Zimbabwe,1899.774977,14237000,78.7367,-0.0532814,78.6834,1477.752086,1269.685019,15172.73598,,,,,34,1,47,14,29,29,12,9,2,35,14,52,0,0,0,7,8,12,24,8,2634,205.306,12.869,0,69,516,Tropical,,,,,
4095,Umzingwane,Limpopo,,Bulawayo,Zimbabwe,,1958,,38,,3.33,57,17.1,724,249.6,1094,492,,,Main,,,,,,,,Water supply,,28.972978,-20.394511,Zimbabwe,1899.774977,14237000,30.0513,-0.00436754,30.0469,6880.600979,1181.260319,3933.596862,,,,,34,1,47,14,29,29,12,9,2,35,14,52,0,0,0,7,8,12,24,8,2634,205.306,12.869,0,69,516,Tropical,,,,,
4099,Silalabuhwa,Limpopo,,Bulawayo,Zimbabwe,,1967,,30,,3.78,23.4,6.2,4034,18.4,977,2994,Main,,,,,,,,,,Irrigation,,29.36893,-20.779438,Zimbabwe,1899.774977,14237000,33.3869,-0.0441121,33.3428,756.8648965,2062.432086,7795.993285,,,,,34,1,47,14,29,29,12,9,2,35,14,52,0,0,0,7,8,12,24,8,2634,205.306,12.869,0,69,516,Tropical,,,,,
4101,Makashi,Limpopo,,Gwanda,Zimbabwe,,1969,,16,,0.15,3.3,22,33,317.1,953,34,Main,,,,,,,,,,Irrigation,,29.165907,-20.910566,Zimbabwe,1899.774977,14237000,3.71106,-5.03E-06,3.71106,737785.2883,,,,,,,34,1,47,14,29,29,12,9,2,35,14,52,0,0,0,7,8,12,24,8,2634,205.306,12.869,0,69,516,Tropical,,,,,
4108,Tamba,Limpopo,,West Nicholson,Zimbabwe,,,,,,0.3,2.7,9,31,276.2,760,27,,,,,,,,,,,,,29.635417,-21.301267,Zimbabwe,1899.774977,14237000,5.02204,-1.42E-05,5.02203,353664.7887,,,,,,,34,1,47,14,29,29,12,9,2,35,14,52,0,0,0,7,8,12,24,8,2634,205.306,12.869,0,69,516,Tropical,,,,,
4111,Doddie Burn,Limpopo,,Bulawayo,Zimbabwe,,1955,,19,,0.64,3.6,5.6,350,32.6,698,536,Main,,,,,,,,,,Irrigation,,29.363206,-21.40362,Zimbabwe,1899.774977,14237000,9.44991,-0.000513185,9.4494,18414.23658,,,,,,,34,1,47,14,29,29,12,9,2,35,14,52,0,0,0,7,8,12,24,8,2634,205.306,12.869,0,69,516,Tropical,,,,,
4112,Pioneer,Limpopo,,Gwanda,Zimbabwe,,1968,,16,,2.37,10.9,4.6,744,46.5,681,682,Main,,,,,,,,,,Irrigation,,29.662111,-21.47167,Zimbabwe,1899.774977,14237000,23.696,-0.00204671,23.694,11577.60503,,,,,,,34,1,47,14,29,29,12,9,2,35,14,52,0,0,0,7,8,12,24,8,2634,205.306,12.869,0,69,516,Tropical,,,,,
4115,Tongwe,Limpopo,,Beitbridge,Zimbabwe,,,,,,1.32,40,30.3,511,248.2,525,583,,,,,,,,,,,,,29.981504,-21.93125,Zimbabwe,1899.774977,14237000,14.9973,-0.00132294,14.996,11336.34178,,,,,,,34,1,47,14,29,29,12,9,2,35,14,52,0,0,0,7,8,12,24,8,2634,205.306,12.869,0,69,516,Tropical,,,,,
4094,Matopos,Limpopo,Shashe,Bulawayo,Zimbabwe,,1901,,21,,0.12,4.3,35.8,15,909,1390,11,Main,,,,,,,,,,Irrigation,,28.515855,-20.372383,Zimbabwe,1899.774977,14237000,2.21259,-2.48E-06,2.21258,892173.3871,284.3864282,34.12637138,,,,,23,1,43,14,27,27,16,9,3,26,9,51,0,0,0,10,8,11,23,8,1859,460.761,15.862,0,73,574,Tropical,,,,,
4098,Umhlangwa,Limpopo,Shashe,Plumtree,Zimbabwe,,1971,,16,,0.78,4.3,5.5,71,192,1297,88,,,Main,,,,,,,,Water supply,,27.890656,-20.567717,Zimbabwe,1899.774977,14237000,10.4399,-9.44E-05,10.4398,110592.161,,,,,,,23,1,43,14,27,27,16,9,3,26,9,51,0,0,0,10,8,11,23,8,1859,460.761,15.862,0,73,574,Tropical,,,,,
4100,Blanket,Limpopo,Shashe,Gwanda,Zimbabwe,,1952,,17,,1.56,5.3,3.4,671,25,997,518,Main,,,,,,,,,,Irrigation,,28.953455,-20.863242,Zimbabwe,1899.774977,14237000,16.6871,-0.00184766,16.6853,9031.477653,2742.165394,4277.778015,,,,,23,1,43,14,27,27,16,9,3,26,9,51,0,0,0,10,8,11,23,8,1859,460.761,15.862,0,73,574,Tropical,,,,,
4102,Tuli Makwe,Limpopo,Shashe,Gwanda,Zimbabwe,,1966,,31,,1.17,8.3,7.1,974,27,958,769,Main,,,,,,,,,,Irrigation,,28.80256,-20.959136,Zimbabwe,1899.774977,14237000,14.1279,-0.00282662,14.1251,4998.160347,2111.868757,2470.886446,,,,,23,1,43,14,27,27,16,9,3,26,9,51,0,0,0,10,8,11,23,8,1859,460.761,15.862,0,73,574,Tropical,,,,,
4103,Ingwesi,Limpopo,Shashe,Plumtree,Zimbabwe,,1968,,40,,8.03,69.8,8.7,680,325.5,1043,824,Main,,,,,,,,,,Irrigation,,27.902083,-21.017455,Zimbabwe,1899.774977,14237000,58.1829,-0.00593404,58.177,9804.938962,,,,,,,23,1,43,14,27,27,16,9,3,26,9,51,0,0,0,10,8,11,23,8,1859,460.761,15.862,0,73,574,Tropical,,,,,
4104,Thornville,Limpopo,Shashe,Plumtree,Zimbabwe,,1967,,22,,1.01,3.5,3.5,168,66.1,981,182,Main,,,,,,,,,,Irrigation,,28.14334,-21.047167,Zimbabwe,1899.774977,14237000,12.331,-0.000280785,12.3308,43916.16361,,,,,,,23,1,43,14,27,27,16,9,3,26,9,51,0,0,0,10,8,11,23,8,1859,460.761,15.862,0,73,574,Tropical,,,,,
4105,Antelope,Limpopo,Shashe,Bulawayo,Zimbabwe,,1971,,23,,2.92,15,5.1,791,60.1,968,755,Main,,,,,,,,,,Irrigation,,28.434884,-21.054363,Zimbabwe,1899.774977,14237000,27.2895,-0.00306286,27.2864,8909.809786,,,,,,,23,1,43,14,27,27,16,9,3,26,9,51,0,0,0,10,8,11,23,8,1859,460.761,15.862,0,73,574,Tropical,,,,,
4110,Shashe,Limpopo,Shashe,Francistown,Botswana,,1972,,27,,15.08,85,5.6,1460,184.6,972,3682,,,Main,,,,,,,,Water supply,,27.427079,-21.364579,Botswana,15807.37359,2205000,93.4619,-0.00322004,93.4587,29025.07422,,,,,,,23,1,43,14,27,27,16,9,3,26,9,51,0,0,0,10,8,11,23,8,1859,460.761,15.862,0,73,574,Tropical,,,,,
4113,Kafusi,Limpopo,Shashe,Gwanda,Zimbabwe,,,,,,0.15,2.1,14,309,21.6,753,494,,,,,,,,,,,,,28.767708,-21.593123,Zimbabwe,1899.774977,14237000,3.71106,-7.90E-05,3.71099,46975.44304,,,,,,,23,1,43,14,27,27,16,9,3,26,9,51,0,0,0,10,8,11,23,8,1859,460.761,15.862,0,73,574,Tropical,,,,,
6891,Dikgatlhong,Limpopo,,Robelela,Botswana,,2011,,41,4600,41.77,400,9.6,5001,253.6,856,7691,,,Main,,,,,,,,Water supply,,27.981005,-21.564694,Botswana,15807.37359,2205000,,,,,,,,,,,23,1,43,14,27,27,16,9,3,26,9,51,0,0,0,10,8,11,23,8,1859,460.761,15.862,0,73,574,Tropical,,,,,
4140,Rhenosterkop,Limpopo,Elefantes,Marble Hall,South Africa,,1984,,36,,29.99,205.8,6.9,2220,294,943,3676,,,Main,,,,,,,,Water supply,,28.917429,-25.0979,South Africa,12294.87614,57010000,30.8321,-0.0107756,30.8214,2861.288467,,,,,,,16,0,53,14,37,37,16,9,1,9,14,50,4,0,0,6,6,13,30,3,2912,493.954,81.519,5,111,642,Subtropical,,,,,
4143,Rust de Winter,Limpopo,Elefantes,Pienaarsrivier,South Africa,,1977,,31,,3.75,28.5,7.6,904,100,1036,1146,Main,,,,,,,,,,Irrigation,,28.514582,-25.235963,South Africa,12294.87614,57010000,5.94357,-0.000932381,5.94264,6374.615098,,,,,,,16,0,53,14,37,37,16,9,1,9,14,50,4,0,0,6,6,13,30,3,2912,493.954,81.519,5,111,642,Subtropical,,,,,
4144,Rooikraal,Limpopo,Elefantes,Groblersdal,South Africa,,1983,,15,,0.35,2.1,6,147,45.3,1188,175,Main,,,,,,,,,,Irrigation,,29.65514,-25.294375,South Africa,12294.87614,57010000,1.03295,-4.24E-06,1.03295,243620.283,1708.414891,597.9452119,,,,,27,0,78,12,46,46,16,9,2,6,32,43,2,0,0,4,6,12,38,3,9958,1176.148,70.867,3,116,655,Subtropical,,,,,
4146,Roodepoort,Limpopo,Elefantes,Grobelsdar,South Africa,,1968,,17,,0.2,1.8,9,522,10.9,1074,625,,,,,,,,,,,,,29.484297,-25.399352,South Africa,12294.87614,57010000,0.598812,-4.24E-05,0.598769,14122.92453,1929.896074,385.9792148,,,,,27,0,78,12,46,46,16,9,2,6,32,43,2,0,0,4,6,12,38,3,9958,1176.148,70.867,3,116,655,Subtropical,,,,,
4148,Loskop,Limpopo,Elefantes,Groblersdal,South Africa,,1978,,53,,23.55,348.1,14.8,7900,139.7,1018,12288,Main,,,,,,,,,,Irrigation,,29.357292,-25.419399,South Africa,12294.87614,57010000,25.5289,-0.0451719,25.4838,565.1500158,1216.749108,28654.44149,,,,,27,0,78,12,46,46,16,9,2,6,32,43,2,0,0,4,6,12,38,3,9958,1176.148,70.867,3,116,655,Subtropical,,,,,
4160,Middelburg,Limpopo,Elefantes,Middelburg,South Africa,,1983,,27,,3.92,48.4,12.3,1110,138.3,1515,1592,,,Main,,,,,,,,Water supply,,29.548158,-25.776945,South Africa,12294.87614,57010000,6.19486,-0.00143219,6.19343,4325.445646,786.8911231,3084.613203,,,,,27,0,78,12,46,46,16,9,2,6,32,43,2,0,0,4,6,12,38,3,9958,1176.148,70.867,3,116,655,Subtropical,,,,,
4163,Premier Mine,Limpopo,Elefantes,CulliNA,South Africa,,1907,,,,0.59,5,8.5,2746,5.8,1370,2882,,,,,,,,,,,,,28.861662,-25.80301,South Africa,12294.87614,57010000,1.421,-0.000512062,1.42049,2775.054583,,,,,,,27,0,78,12,46,46,16,9,2,6,32,43,2,0,0,4,6,12,38,3,9958,1176.148,70.867,3,116,655,Subtropical,,,,,
4164,Pienaar,Limpopo,Elefantes,Middelburg,South Africa,,1938,,9,,0.27,1,3.7,98,32.4,1529,107,,,,,,,,,,,,,29.486037,-25.837087,South Africa,12294.87614,57010000,0.823765,-4.46E-06,0.823761,184700.6726,2449.575491,661.3853826,,,,,27,0,78,12,46,46,16,9,2,6,32,43,2,0,0,4,6,12,38,3,9958,1176.148,70.867,3,116,655,Subtropical,,,,,
4165,Doornpoort,Limpopo,Elefantes,Witbank,South Africa,,1951,,16,,1.59,9.2,5.8,2075,14.1,1447,3618,,,Main,,,,,,,,Water supply,,29.296875,-25.865598,South Africa,12294.87614,57010000,3.07369,-0.000943506,3.07275,3257.73233,1956.411513,3110.694306,,,,,27,0,78,12,46,46,16,9,2,6,32,43,2,0,0,4,6,12,38,3,9958,1176.148,70.867,3,116,655,Subtropical,,,,,
4167,Bronkhorstspruit,Limpopo,Elefantes,Bronkhorstspruit,South Africa,,1983,,30,,7.29,59.4,8.1,1279,147.3,1435,1248,Main,,Sec,,,,,,,,Irrigation,,28.719792,-25.889975,South Africa,12294.87614,57010000,10.1435,-0.0018001,10.1417,5634.964724,1514.417443,11040.10316,,,,,27,0,78,12,46,46,16,9,2,6,32,43,2,0,0,4,6,12,38,3,9958,1176.148,70.867,3,116,655,Subtropical,,,,,
4168,Withbank,Limpopo,Elefantes,Withbank,South Africa,,1983,,42,,9.04,104,11.5,2073,159.1,1505,3584,,,Main,,,,,,,,Water supply,,29.306271,-25.894117,South Africa,12294.87614,57010000,11.9593,-0.00595687,11.9534,2007.648312,1199.274228,10841.43902,,,,,27,0,78,12,46,46,16,9,2,6,32,43,2,0,0,4,6,12,38,3,9958,1176.148,70.867,3,116,655,Subtropical,,,,,
4169,Phoenix Colliery,Limpopo,Elefantes,Witbank,South Africa,,1960,,,,0.46,0.8,1.7,193,13.1,1524,254,,,,,,,,,,,,,29.193603,-26.06382,South Africa,12294.87614,57010000,1.23115,-2.72E-05,1.23112,45262.86765,,,,,,,27,0,78,12,46,46,16,9,2,6,32,43,2,0,0,4,6,12,38,3,9958,1176.148,70.867,3,116,655,Subtropical,,,,,
4170,Van Dyksdrif,Limpopo,Elefantes,Witbank,South Africa,,1948,,,,0.19,0.6,3.2,1,1902.6,1544,1,,,,,,,,,,,,,29.291466,-26.083546,South Africa,12294.87614,57010000,0.598812,0,0.598812,,,,,,,,27,0,78,12,46,46,16,9,2,6,32,43,2,0,0,4,6,12,38,3,9958,1176.148,70.867,3,116,655,Subtropical,,,,,
4114,Letsibogo,Limpopo,,,Botswana,,,,28,,12.94,103.7,8,4677,70.3,850,9705,,,,,,,,,,,,,27.731227,-21.843726,Botswana,15807.37359,2205000,83.1019,-0.0119167,83.09,6973.566508,,,,,,,13,0,34,14,22,22,12,9,4,21,3,50,0,0,0,0,8,9,18,8,696,146.886,7.554,0,48,698,Tropical,,,,,
4121,Glen Alpine,Limpopo,Mogalakwna,Tolwe,South Africa,,1979,,27,,3.55,23.6,6.6,3942,19,820,11263,Main,,,,,,,,,,Irrigation,,28.69795,-23.194062,South Africa,12294.87614,57010000,5.81685,-0.00885261,5.80799,657.0774043,,,,,,,11,0,69,14,31,31,16,9,4,16,16,35,1,0,0,15,8,14,26,3,3551,568.135,35.418,1,81,599,Subtropical,,,,,
4127,Doorndraai,Limpopo,Elefantes,Potgietersrus,South Africa,,1979,,28,,5.29,47.3,8.9,272,551.4,1189,581,Main,,Sec,,,,,,,,Irrigation,,28.777546,-24.281926,South Africa,12294.87614,57010000,7.88525,-0.000313288,7.88494,25169.33301,,,,,,,11,0,69,14,31,31,16,9,4,16,16,35,1,0,0,15,8,14,26,3,3551,568.135,35.418,1,81,599,Subtropical,,,,,
4130,Haaskloof,Limpopo,Elefantes,Naboomspruit,South Africa,,1984,,10,,0.2,2,10,11,576.5,1278,23,,,,,,,,,,,,,28.54105,-24.393675,South Africa,12294.87614,57010000,0.598812,-2.93E-07,0.598811,2043726.962,,,,,,,11,0,69,14,31,31,16,9,4,16,16,35,1,0,0,15,8,14,26,3,3551,568.135,35.418,1,81,599,Subtropical,,,,,
4133,Donkerpoort,Limpopo,Elefantes,Nylstroom,South Africa,,1945,,23,,0.34,3.4,10,41,263,1267,84,,,Main,,,,,,,,Water supply,,28.320336,-24.667943,South Africa,12294.87614,57010000,0.823765,-1.42E-06,0.823764,580116.1972,,,,,,,11,0,69,14,31,31,16,9,4,16,16,35,1,0,0,15,8,14,26,3,3551,568.135,35.418,1,81,599,Subtropical,,,,,
4126,Hans Strijdom,Limpopo,,Ellisras,South Africa,,1975,,57,,7.6,148.7,19.6,3042,155,913,4318,Main,,Sec,,,,,,,,Irrigation,,27.72291,-23.986232,South Africa,12294.87614,57010000,10.47,-0.0090155,10.461,1161.333259,,,,,,,15,0,85,14,34,34,16,9,1,23,16,22,1,0,0,32,8,13,28,3,4818,75.345,9.028,0,57,599,Subtropical,,,,,
4131,Bokaa,Limpopo,Marico,Kopong,Botswana,,,,23,,5.48,18.5,3.4,1140,51.5,957,3614,,,,,,,,,,,,,26.017675,-24.443603,Botswana,15807.37359,2205000,8.11838,-0.00122943,8.11715,6603.369041,,,,,,,9,0,41,14,28,28,13,9,1,6,4,48,0,0,0,0,8,11,23,8,1968,598.751,34.449,3,72,688,Subtropical,,,,,
4134,Gaberone,Limpopo,Marico,Gaberone,Botswana,,1985,,30,,18.5,144,7.8,1165,391.9,1000,4384,,,Main,,,,,,,,Water supply,,25.91869,-24.698254,Botswana,15807.37359,2205000,21.0794,-0.00269733,21.0767,7814.913266,,,,,,,9,0,41,14,28,28,13,9,1,6,4,48,0,0,0,0,8,11,23,8,1968,598.751,34.449,3,72,688,Subtropical,,,,,
4141,Nywane,Limpopo,Marico,Lobatse,Botswana,,1964,,20,,0.34,2.3,6.8,42,173.6,1141,233,,,Main,,,,,,,,Water supply,,25.688432,-25.115074,Botswana,15807.37359,2205000,0.823765,-4.37E-06,0.823761,188504.5767,,,,,,,9,0,41,14,28,28,13,9,1,6,4,48,0,0,0,0,8,11,23,8,1968,598.751,34.449,3,72,688,Subtropical,,,,,
4136,Bischoffs,Limpopo,Krokodil,Warmbaths,South Africa,,1915,,10,,0.13,3.6,27.7,30,380.5,1273,64,,,,,,,,,,,,,28.209096,-24.826242,South Africa,12294.87614,57010000,0.347136,-1.09E-06,0.347135,318473.3945,,,,,,,16,1,68,14,39,39,16,9,2,26,19,36,3,0,0,10,6,13,33,3,6604,7083.551,239.476,11,136,635,Subtropical,,,,,
4137,Warmbad,Limpopo,Krokodil,Warmbaths,South Africa,,1979,,43,,0.54,8,14.8,60,422.8,1242,126,Main,,,,,,,,,,Irrigation,,28.242708,-24.856609,South Africa,12294.87614,57010000,1.23115,-8.34E-06,1.23114,147619.9041,,,,,,,16,1,68,14,39,39,16,9,2,26,19,36,3,0,0,10,6,13,33,3,6604,7083.551,239.476,11,136,635,Subtropical,,,,,
4139,Bierspruit,Limpopo,Krokodil,Northam,South Africa,,1980,,,,1.55,3.6,2.3,522,21.9,990,1289,,,,,,,,,,,,,27.139537,-24.914536,South Africa,12294.87614,57010000,3.07369,-0.000276528,3.07342,11115.29393,,,,,,,16,1,68,14,39,39,16,9,2,26,19,36,3,0,0,10,6,13,33,3,6604,7083.551,239.476,11,136,635,Subtropical,,,,,
4142,Klipvoor,Limpopo,Krokodil,Warmbad,South Africa,,1970,,29,,6.94,47,6.8,2971,50.2,982,6162,Main,,,,,,,,,,Irrigation,,27.808083,-25.133018,South Africa,12294.87614,57010000,9.70373,-0.00679312,9.69694,1428.464387,,,,,,,16,1,68,14,39,39,16,9,2,26,19,36,3,0,0,10,6,13,33,3,6604,7083.551,239.476,11,136,635,Subtropical,,,,,
4145,Vaalkop,Limpopo,Krokodil,Rustenburg,South Africa,,1979,,32,,9.66,58.3,6,2023,91.4,985,4548,Main,,,,,,,,,,Irrigation,,27.472905,-25.310428,South Africa,12294.87614,57010000,12.6851,-0.00614911,12.679,2062.916422,,,,,,,16,1,68,14,39,39,16,9,2,26,19,36,3,0,0,10,6,13,33,3,6604,7083.551,239.476,11,136,635,Subtropical,,,,,
4147,Roodekopjies,Limpopo,Krokodil,Brits,South Africa,,1984,,25,,12.25,102.6,8.4,4039,80.6,998,6044,Main,,,,,,,,,,Irrigation,,27.578299,-25.407798,South Africa,12294.87614,57010000,15.1925,-0.0124788,15.1801,1217.46482,1739.485586,21308.69843,,,,,16,1,68,14,39,39,16,9,2,26,19,36,3,0,0,10,6,13,33,3,6604,7083.551,239.476,11,136,635,Subtropical,,,,,
4151,Lindleyspoort,Limpopo,Krokodil,Zwartruggens,South Africa,,1980,,38,,1.31,14.4,11,382,119.5,1192,711,Main,,,,,,,,,,Irrigation,,26.6908,-25.499149,South Africa,12294.87614,57010000,2.61052,-0.000196702,2.61033,13271.44615,,,,,,,16,1,68,14,39,39,16,9,2,26,19,36,3,0,0,10,6,13,33,3,6604,7083.551,239.476,11,136,635,Subtropical,,,,,
4153,Bospoort,Limpopo,Krokodil,Rustenburg,South Africa,,1969,,25,,3.31,18.9,5.7,492,121.8,1080,1079,Sec,,Main,,,,,,,,Water supply,,27.348006,-25.564922,South Africa,12294.87614,57010000,5.43204,-0.000495294,5.43155,10967.30427,,,,,,,16,1,68,14,39,39,16,9,2,26,19,36,3,0,0,10,6,13,33,3,6604,7083.551,239.476,11,136,635,Subtropical,,,,,
4154,Roodeplaat,Limpopo,Krokodil,Pretoria,South Africa,,1980,,52,,3.82,43.7,11.4,435,318.6,1224,550,Main,,Sec,,,,,,,,Irrigation,,28.369792,-25.623764,South Africa,12294.87614,57010000,6.06957,-0.000325102,6.06924,18669.74057,,,,,,,16,1,68,14,39,39,16,9,2,26,19,36,3,0,0,10,6,13,33,3,6604,7083.551,239.476,11,136,635,Subtropical,,,,,
4155,Bon Accord,Limpopo,Krokodil,Pretoria,South Africa,,1980,,17,,1.1,4.4,4,218,64,1207,315,Main,,,,,,,,,,Irrigation,,28.19306,-25.62418,South Africa,12294.87614,57010000,2.28907,-4.33E-05,2.28903,52865.35797,,,,,,,16,1,68,14,39,39,16,9,2,26,19,36,3,0,0,10,6,13,33,3,6604,7083.551,239.476,11,136,635,Subtropical,,,,,
4157,Middelkraal,Limpopo,Krokodil,Pretoria,South Africa,,1966,,,,0.16,0.8,5,80,31.7,1127,159,,,,,,,,,,,,,27.543459,-25.693883,South Africa,12294.87614,57010000,0.598812,-4.33E-06,0.598807,138293.7644,,,,,,,16,1,68,14,39,39,16,9,2,26,19,36,3,0,0,10,6,13,33,3,6604,7083.551,239.476,11,136,635,Subtropical,,,,,
4158,Koster River,Limpopo,Krokodil,Koster,South Africa,,1979,,23,,2.1,12.8,6.1,154,263.6,1268,288,Main,,,,,,,,,,Irrigation,,26.902048,-25.702081,South Africa,12294.87614,57010000,3.80678,-6.03E-05,3.80672,63130.67993,,,,,,,16,1,68,14,39,39,16,9,2,26,19,36,3,0,0,10,6,13,33,3,6604,7083.551,239.476,11,136,635,Subtropical,,,,,
4159,Hartebeespoort,Limpopo,Krokodil,Brits,South Africa,,1979,,59,,16.88,198.3,11.7,3349,187.8,1214,4042,Main,,,,,,,,,,Irrigation,,27.851129,-25.728437,South Africa,12294.87614,57010000,19.6316,-0.00767981,19.6239,2556.261158,1469.681026,24808.21572,,,,,16,1,68,14,39,39,16,9,2,26,19,36,3,0,0,10,6,13,33,3,6604,7083.551,239.476,11,136,635,Subtropical,,,,,
4161,Buffelspoort,Limpopo,Krokodil,Rustenburg,South Africa,,1979,,34,,1.13,10.3,9.1,59,553.6,1350,113,Main,,,,,,,,,,Irrigation,,27.488006,-25.782458,South Africa,12294.87614,57010000,2.28907,-8.45E-06,2.28906,270895.858,,,,,,,16,1,68,14,39,39,16,9,2,26,19,36,3,0,0,10,6,13,33,3,6604,7083.551,239.476,11,136,635,Subtropical,,,,,
4162,Olifantsnek,Limpopo,Krokodil,Rustenburg,South Africa,,1962,,30,,2.29,14.2,6.2,259,173.9,1205,502,Main,,,,,,,,,,Irrigation,,27.258611,-25.785434,South Africa,12294.87614,57010000,4.08917,-6.11E-05,4.08911,66925.85925,,,,,,,16,1,68,14,39,39,16,9,2,26,19,36,3,0,0,10,6,13,33,3,6604,7083.551,239.476,11,136,635,Subtropical,,,,,
4166,Rietvlei,Limpopo,Krokodil,Pretoria,South Africa,,1977,,29,,1.67,12.4,7.4,540,72.8,1473,488,,,Main,,,,,,,,Water supply,,28.266167,-25.876491,South Africa,12294.87614,57010000,3.22382,-0.000178002,3.22364,18111.14482,1818.920649,3037.597484,,,,,16,1,68,14,39,39,16,9,2,26,19,36,3,0,0,10,6,13,33,3,6604,7083.551,239.476,11,136,635,Subtropical,,,,,
4138,Eerste Poort,Limpopo,Krokodil,Derdepoort,South Africa,,1986,,29,,30.94,230,7.4,3050,239.1,963,8631,Main,,,,,,,,,,Irrigation,,26.455762,-24.873715,South Africa,12294.87614,57010000,31.5574,-0.013927,31.5435,2265.915129,2016.419833,62388.02963,,,,,11,0,52,14,32,32,16,9,1,34,16,46,1,0,0,11,6,13,27,8,3129,159.995,11.984,1,70,616,Subtropical,,,,,
4149,Kromellenboog,Limpopo,Krokodil,Zeerust,South Africa,,1983,,20,,1.77,9.4,5.3,611,48.8,1053,1769,Main,,,,,,,,,,Irrigation,,26.346826,-25.445021,South Africa,12294.87614,57010000,3.37208,-0.000273289,3.3718,12338.87935,2531.796221,4481.279311,,,,,11,0,52,14,32,32,16,9,1,34,16,46,1,0,0,11,6,13,27,8,3129,159.995,11.984,1,70,616,Subtropical,,,,,
4150,Marico-Bosveld,Limpopo,Krokodil,Zeerust,South Africa,,1977,,27,,3.49,27.8,8,508,173.5,1053,1169,Main,,,,,,,,,,Irrigation,,26.394792,-25.470363,South Africa,12294.87614,57010000,5.68937,-0.000496955,5.68887,11448.46113,,,,,,,11,0,52,14,32,32,16,9,1,34,16,46,1,0,0,11,6,13,27,8,3129,159.995,11.984,1,70,616,Subtropical,,,,,
4152,Klein Maricopoort,Limpopo,Krokodil,Zeerust,South Africa,,1983,,27,,1.05,7.1,6.8,408,55.2,1156,1162,Main,,,,,,,,,,Irrigation,,26.146804,-25.523568,South Africa,12294.87614,57010000,2.28907,-0.000177582,2.28889,12890.2141,2211.703968,2322.289166,,,,,11,0,52,14,32,32,16,9,1,34,16,46,1,0,0,11,6,13,27,8,3129,159.995,11.984,1,70,616,Subtropical,,,,,
4156,Twyfelspoort,Limpopo,Krokodil,Swartruggens,South Africa,,1956,,,,0.23,1,4.3,117,27.1,1200,233,,,,,,,,,,,,,26.506591,-25.651693,South Africa,12294.87614,57010000,0.598812,-8.65E-06,0.598803,69226.82081,,,,,,,11,0,52,14,32,32,16,9,1,34,16,46,1,0,0,11,6,13,27,8,3129,159.995,11.984,1,70,616,Subtropical,,,,,
4581,Injaka,,,Nelspruit,South Africa,,2002,,53,550,8.1,123,15.2,990,394,743,214,,,,,,,,,,,,,31.08411,-24.885283,South Africa,12294.87614,57010000,11.0081,-0.0015053,11.0066,7312.89444,706.1281856,5719.638303,,,,,107,0,82,13,49,49,3,9,4,80,5,53,2,0,0,72,8,21,41,9,2493,593.373,84.246,7,96,628,Subtropical,,,,,
4584,Dagama,Indian Ocean Coast,Incomati,White River,South Africa,,1979,,,,1.1,13.7,12.5,229,189.7,872,61,Main,,,,,,,,,,Irrigation,,31.018492,-25.143748,South Africa,12294.87614,57010000,2.28907,-6.89E-05,2.289,33223.07692,,,,,,,107,0,82,13,49,49,3,9,4,80,5,53,2,0,0,72,8,21,41,9,2493,593.373,84.246,7,96,628,Subtropical,,,,,
2363,Balbina,Amazonas,,Manaus,Brazil,,1987,,33,2920,2304.63,17533,7.6,704488,78.9,38,18895,,Main,,,,,,,,,Hydroelectricity,,-59.477151,-1.914499,Brazil,14103.45153,207834000,3979.79,-9.0576,3970.74,439.3868133,2430.862175,5602237.894,249.75,,1073,,1128,12,31,18,144,144,1,1,5,84,0,0,0,0,0,57,10,33,89,9,379,12.12,0.434,0,10,701,Tropical,2.26548199,5221.097758,3.700596459,0.108368805,0.490444783
4593,Shiyalongubo,Indian Ocean Coast,Incomati,Barberton,South Africa,,1939,,,,0.27,2.3,8.5,169,43.2,1004,36,Main,,,,,,,,,,Irrigation,,31.267849,-25.758962,South Africa,12294.87614,57010000,0.823765,-1.52E-05,0.82375,54270.04414,,,,,,,150,1,130,11,65,64,3,9,2,65,12,51,1,0,0,8,6,18,53,3,11116,650.144,58.059,3,98,625,Subtropical,,,,,
4594,Vygeboom,Indian Ocean Coast,Incomati,Badplaas,South Africa,,1983,,,,5.94,83.9,14.1,13048,20.4,1031,3127,,,Main,,,,,,,,Water supply,,30.616939,-25.883603,South Africa,12294.87614,57010000,8.57931,-0.0355165,8.54379,241.5584306,,,,,,,150,1,130,11,65,64,3,9,2,65,12,51,1,0,0,8,6,18,53,3,11116,650.144,58.059,3,98,625,Subtropical,,,,,
4595,Nooitgedacht,Indian Ocean Coast,Incomati,Carolina,South Africa,,1983,,,,7.16,78.8,11,4014,62.3,1530,1596,Main,,Sec,,,,,,,,Irrigation,,30.080815,-25.952099,South Africa,12294.87614,57010000,10.0341,-0.0072634,10.0268,1381.460473,,,,,,,150,1,130,11,65,64,3,9,2,65,12,51,1,0,0,8,6,18,53,3,11116,650.144,58.059,3,98,625,Subtropical,,,,,
4596,Sand River,Indian Ocean Coast,Incomati,Tshaneni,Swaziland,,1966,,25,,6.11,50.3,8.2,423,377.1,286,86,Main,,,,,,,,,,Irrigation,,31.712739,-25.982537,Swaziland,7738.974566,1125000,8.80725,-0.0010344,8.80622,8514.356148,993.3928462,6069.63029,,,,,150,1,130,11,65,64,3,9,2,65,12,51,1,0,0,8,6,18,53,3,11116,650.144,58.059,3,98,625,Subtropical,,,,,
4597,Maguga,Indian Ocean Coast,Incomati,Piggs Peak,Swaziland,,2001,,115,870,9.83,332,33.8,36253,29,574,6471,,,,,,,,,,,,,31.259984,-26.07678,Swaziland,7738.974566,1125000,12.7879,-0.972042,11.8158,13.15570726,606.4622667,5961.524082,,,,,150,1,130,11,65,64,3,9,2,65,12,51,1,0,0,8,6,18,53,3,11116,650.144,58.059,3,98,625,Subtropical,,,,,
4585,Klipkopjes,Indian Ocean Coast,Incomati,White River,South Africa,,1979,,,,1.95,11.9,6.1,276,136.7,950,74,Main,,,,,,,,,,Irrigation,,31.007669,-25.218353,South Africa,12294.87614,57010000,3.66345,-0.000123627,3.66333,29633.08986,,,,,,,115,0,147,14,59,59,2,9,1,81,7,46,3,0,0,27,6,22,49,9,6766,616.989,58.782,3,102,654,Subtropical,,,,,
4587,Witklip,Indian Ocean Coast,Incomati,White River,South Africa,,1979,,,,1.67,13,7.8,253,162.9,1005,66,Main,,,,,,,,,,Irrigation,,30.896875,-25.235417,South Africa,12294.87614,57010000,3.22382,-9.36E-05,3.22373,34442.52137,,,,,,,115,0,147,14,59,59,2,9,1,81,7,46,3,0,0,27,6,22,49,9,6766,616.989,58.782,3,102,654,Subtropical,,,,,
4588,Longmere,Indian Ocean Coast,Incomati,White River,South Africa,,1979,,,,0.46,4.3,9.3,385,35.4,925,105,Main,,,,,,,,,,Irrigation,,31.001473,-25.276819,South Africa,12294.87614,57010000,1.23115,-8.87E-05,1.23106,13879.93236,,,,,,,115,0,147,14,59,59,2,9,1,81,7,46,3,0,0,27,6,22,49,9,6766,616.989,58.782,3,102,654,Subtropical,,,,,
4589,Sterkspruit,Indian Ocean Coast,Incomati,Bosoord,South Africa,,1982,,,,12.02,167,13.9,3852,137.5,1184,965,,,,,,,,,,,,,30.385415,-25.356251,South Africa,12294.87614,57010000,14.9963,-0.00582579,14.9905,2574.122994,,,,,,,115,0,147,14,59,59,2,9,1,81,7,46,3,0,0,27,6,22,49,9,6766,616.989,58.782,3,102,654,Subtropical,,,,,
4590,Primkop,Indian Ocean Coast,Incomati,White River,South Africa,,1979,,,,0.27,2.1,7.8,900,7.4,738,253,Main,,,,,,,,,,Irrigation,,31.071567,-25.384188,South Africa,12294.87614,57010000,0.823765,-0.000134685,0.823631,6116.234176,,,,,,,115,0,147,14,59,59,2,9,1,81,7,46,3,0,0,27,6,22,49,9,6766,616.989,58.782,3,102,654,Subtropical,,,,,
4591,Friedenheim,Indian Ocean Coast,Incomati,Nelspruit,South Africa,,1960,,,,0.16,1.6,10,130,39,665,35,,,,,,,,,,,,,31.004698,-25.430498,South Africa,12294.87614,57010000,0.598812,-6.53E-06,0.598805,91701.68453,,,,,,,115,0,147,14,59,59,2,9,1,81,7,46,3,0,0,27,6,22,49,9,6766,616.989,58.782,3,102,654,Subtropical,,,,,
4592,Tankerton,Indian Ocean Coast,Incomati,Malelane,South Africa,,1950,,,,0.27,0.8,3,18,140.9,270,6,,,,,,,,,,,,,31.600928,-25.430956,South Africa,12294.87614,57010000,0.823765,-1.19E-06,0.823764,692239.4958,,,,,,,115,0,147,14,59,59,2,9,1,81,7,46,3,0,0,27,6,22,49,9,6766,616.989,58.782,3,102,654,Subtropical,,,,,
4598,Pequenos Libombos,Indian Ocean Coast,Black Umbuluzi,Boane,Mozambique,,1987,,45,,36.04,357,9.9,19941,56.8,47,3270,Main,,Sec,Sec,,,,,,,Irrigation,,32.243749,-26.097917,Mozambique,1136.102564,28649000,35.5867,-1.06818,34.5185,33.31526522,1237.475557,44598.61907,,,,,157,7,61,13,48,54,3,9,4,53,17,27,0,0,0,0,8,26,46,2,3020,0.396,273.67,0,170,460,Subtropical,,,,,
4599,Mnjoli,Indian Ocean Coast,Black Umbuluzi,Tshaneni,Swaziland,,1980,,41,,14.25,153,10.7,7336,66.1,282,844,Main,,,,,,,,,,Irrigation,,31.681271,-26.145274,Swaziland,7738.974566,1125000,17.2142,-0.0997988,17.1144,172.489048,1091.690898,15556.5953,,,,,157,7,61,13,48,54,3,9,4,53,17,27,0,0,0,0,8,26,46,2,3020,0.396,273.67,0,170,460,Subtropical,,,,,
4600,Hawane,Indian Ocean Coast,Incomati,Mbabane,Swaziland,,1984,,12,,0.68,2.8,4.1,329,27,1319,39,,,,,,,,,,,,,31.091344,-26.23343,Swaziland,7738.974566,1125000,1.60418,-0.000275268,1.60391,5827.702457,998.314391,678.8537859,,,,,157,7,61,13,48,54,3,9,4,53,17,27,0,0,0,0,8,26,46,2,3020,0.396,273.67,0,170,460,Subtropical,,,,,
4604,Nyetane,Indian Ocean Coast,Maputo,Siteki,Swaziland,,1970,,21,,0.77,6.8,8.8,792,27.2,152,196,Main,,,,,,,,,,Irrigation,,31.957932,-26.633616,Swaziland,7738.974566,1125000,1.78185,-0.000834345,1.78101,2135.627348,,,,,,,113,1,64,13,40,62,2,9,4,82,11,57,1,0,0,5,8,20,52,2,7630,915.787,54.774,2,103,534,Subtropical,,,,,
4606,Sivunga,Indian Ocean Coast,Maputo,Big Bend,Swaziland,,1974,,11,,1,5.9,5.9,1125,16.6,129,283,Main,,,,,,,,,,Irrigation,,31.981248,-26.668748,Swaziland,7738.974566,1125000,2.12373,-0.00152681,2.12221,1390.958927,,,,,,,113,1,64,13,40,62,2,9,4,82,11,57,1,0,0,5,8,20,52,2,7630,915.787,54.774,2,103,534,Subtropical,,,,,
4608,Van Eck,Indian Ocean Coast,Maputo,Big Bend,Swaziland,,1971,,22,,1.16,9.9,8.5,76,413.1,134,22,Main,,,,,,,,,,Irrigation,,31.926435,-26.776565,Swaziland,7738.974566,1125000,2.45123,-5.51E-05,2.45117,44486.93285,,,,,,,113,1,64,13,40,62,2,9,4,82,11,57,1,0,0,5,8,20,52,2,7630,915.787,54.774,2,103,534,Subtropical,,,,,
4610,Pongolapoort,Indian Ocean Coast,Maputo,Mkuze,South Africa,,1984,,,,128.86,2500.6,19.4,42969,184.5,90,7858,Main,,,,,,,,,,Irrigation,,32.07108,-27.418102,South Africa,12294.87614,57010000,96.9973,-1.20252,95.7948,80.66169378,,,,,,,151,0,107,14,53,53,3,9,4,86,17,56,1,0,0,6,6,22,44,3,9617,587.072,49.908,2,96,618,Subtropical,,,,,
4611,Paris,,,Vryheid,South Africa,,2000,,72,180,5.43,115,21.2,11294,32.3,747,1614,,,,,,,,,,,,,31.053125,-27.518013,South Africa,12294.87614,57010000,8.00204,-0.0268355,7.97521,298.1885935,574.0282032,3116.973143,,,,,151,0,107,14,53,53,3,9,4,86,17,56,1,0,0,6,6,22,44,3,9617,587.072,49.908,2,96,618,Subtropical,,,,,
7138,Mhlatuzane,,,Siphofaneni,Swaziland,,2008,,50,,13.46,115,8.5,2656,137.3,203,512,Main,,,,,,,,,,Irrigation,,31.701721,-26.744017,Swaziland,7738.974566,1125000,,,,,,,,,,,153,0,81,13,47,65,2,9,,79,12,57,1,0,0,6,8,20,54,2,8285,834.364,57.108,3,104,541,Subtropical,,,,,
4609,Heyshope,Orange,Vaal,Vakkerstroom,South Africa,,1985,,29,,48.19,500,10.4,7157,221.5,1306,1135,,,Main,,,,,,,,Water supply,,30.52206,-26.99352,South Africa,12294.87614,57010000,44.7698,-0.0500574,44.7197,894.3692641,539.9102151,26018.27327,,,,,187,0,114,12,65,65,2,9,,71,16,53,0,0,0,4,6,21,54,3,11976,179.19,46.513,1,98,619,Subtropical,,,,,
4602,Luphphlo,Indian Ocean Coast,Maputo,Mbabane,Swaziland,,1984,,45,,1.6,24,15,4555,16.7,1018,594,,Main,,,,,,,,,Hydroelectricity,,31.101919,-26.397591,Swaziland,7738.974566,1125000,3.07369,-0.0167151,3.05698,183.8870243,646.1857748,1033.89724,,1.806104826,,6.012161746,189,0,106,11,70,70,2,9,2,78,11,57,1,0,0,7,6,20,58,3,7635,526.045,61.449,3,107,609,Subtropical,,,,,
4603,Westoe,Indian Ocean Coast,Maputo,Amsterdam,South Africa,,1980,,,,6.77,61,9,2817,68.7,1542,526,,,Main,,,,,,,,Water supply,,30.625183,-26.507658,South Africa,12294.87614,57010000,9.59294,-0.00446396,9.58847,2148.975349,,,,,,,189,0,106,11,70,70,2,9,2,78,11,57,1,0,0,7,6,20,58,3,7635,526.045,61.449,3,107,609,Subtropical,,,,,
4605,Jericho,Indian Ocean Coast,Maputo,Amsterdam,South Africa,,1983,,,,7.59,59.8,7.9,1136,166.9,1456,230,,,Main,,,,,,,,Water supply,,30.483517,-26.654343,South Africa,12294.87614,57010000,10.47,-0.00167846,10.4684,6237.860896,,,,,,,189,0,106,11,70,70,2,9,2,78,11,57,1,0,0,7,6,20,58,3,7635,526.045,61.449,3,107,609,Subtropical,,,,,
4607,Morgenstond,Indian Ocean Coast,Maputo,Piet Retief,South Africa,,1980,,,,8.93,46,5.2,2657,54.9,1374,561,,,Main,,,,,,,,Water supply,,30.542291,-26.711639,South Africa,12294.87614,57010000,11.8547,-0.00688439,11.8478,1721.968105,,,,,,,189,0,106,11,70,70,2,9,2,78,11,57,1,0,0,7,6,20,58,3,7635,526.045,61.449,3,107,609,Subtropical,,,,,
4612,Klipfontein,Indian Ocean Coast,Umfolozi,Vryheid,South Africa,,1984,,,,2.45,19,7.8,2160,27.9,1093,340,,,Main,,,,,,,,Water supply,,30.810417,-27.834886,South Africa,12294.87614,57010000,4.22838,-0.00237105,4.22601,1783.336496,,,,,,,210,36,80,14,63,51,3,9,4,88,10,19,0,0,0,70,8,38,43,3,330,0.881,7.386,0,70,622,Subtropical,,,,,
4613,Hluhluwe,Indian Ocean Coast,Umfolozi,Hluhluwe,South Africa,,1984,,,,2.35,28.8,12.3,3773,24.2,80,719,Main,,,,,,,,,,Irrigation,,32.177146,-28.123048,South Africa,12294.87614,57010000,4.08917,-0.00389576,4.08527,1049.646282,,,,,,,210,36,80,14,63,51,3,9,4,88,10,19,0,0,0,70,8,38,43,3,330,0.881,7.386,0,70,622,Subtropical,,,,,
4614,Goedertrouw,Indian Ocean Coast,Mkuze,Eshowe,South Africa,,1984,,,,10.71,315.4,29.4,12826,78,219,1272,Main,,Sec,,,,,,,,Irrigation,,31.467702,-28.773212,South Africa,12294.87614,57010000,13.7029,-0.0506075,13.6523,270.7681668,,,,,,,210,36,80,14,63,51,3,9,4,88,10,19,0,0,0,70,8,38,43,3,330,0.881,7.386,0,70,622,Subtropical,,,,,
4199,Chelmsford,Indian Ocean Coast,Tugela,Newcasle,South Africa,,1983,,,,29.75,198.4,6.7,2102,299.3,1247,850,,,Sec,,,,,,,Main,Other,,29.947326,-27.956296,South Africa,12294.87614,57010000,30.5893,-0.00661515,30.5827,4624.127949,,,,,,,120,1,134,12,58,58,3,9,2,44,14,54,2,0,0,5,6,17,49,3,10798,1872.441,64.367,3,107,636,Subtropical,,,,,
4215,Qedusizi,,,Ladysmith,South Africa,,1998,,32,1437,19.3,128,6.6,4388,92.5,997,1739,,,,,,,,,,,,,29.807088,-28.573036,South Africa,12294.87614,57010000,0.598812,-0.000812425,0.597999,737.0674216,,,,,,,120,1,134,12,58,58,3,9,2,44,14,54,2,0,0,5,6,17,49,3,10798,1872.441,64.367,3,107,636,Subtropical,,,,,
4216,Kilburn,Indian Ocean Coast,Tugela,Bergville,South Africa,,1985,,,,1.24,35.7,28.8,154,735.1,1247,33,,Main,,,,,,,,,Hydroelectricity,,29.101814,-28.589303,South Africa,12294.87614,57010000,2.45123,-3.80E-05,2.45119,64506.05263,,,,,,,120,1,134,12,58,58,3,9,2,44,14,54,2,0,0,5,6,17,49,3,10798,1872.441,64.367,3,107,636,Subtropical,,,,,
4218,Spioenkop,Indian Ocean Coast,Tugela,Ladysmith,South Africa,,1986,,53,,13.71,279.6,20.4,9334,95,1047,2516,,,Main,,,,,,,,Water supply,,29.517123,-28.682657,South Africa,12294.87614,57010000,16.6435,-0.050371,16.5931,330.4182962,556.7944742,7633.652241,,,,,120,1,134,12,58,58,3,9,2,44,14,54,2,0,0,5,6,17,49,3,10798,1872.441,64.367,3,107,636,Subtropical,,,,,
4221,Woodstock,Indian Ocean Coast,Tugela,Bergville,South Africa,,1982,,,,27.54,381,13.8,6126,197.2,1176,1185,,,Sec,,,,,,,Main,Other,,29.24351,-28.760109,South Africa,12294.87614,57010000,28.7925,-0.0277572,28.7647,1037.298431,,,,,,,120,1,134,12,58,58,3,9,2,44,14,54,2,0,0,5,6,17,49,3,10798,1872.441,64.367,3,107,636,Subtropical,,,,,
4223,Driel,Indian Ocean Coast,Tugela,Bergville,South Africa,,1986,,,,1.57,10.4,6.6,8338,4,1137,1708,,,,,,,,,,,,,29.293441,-28.765648,South Africa,12294.87614,57010000,3.07369,-0.00790361,3.06579,388.8969724,,,,,,,120,1,134,12,58,58,3,9,2,44,14,54,2,0,0,5,6,17,49,3,10798,1872.441,64.367,3,107,636,Subtropical,,,,,
4228,Wagendrift,Indian Ocean Coast,Tugela,Estcourt,South Africa,,1983,,,,4.42,58.4,13.2,3733,49.6,1184,773,Main,,,,,,,,,,Irrigation,,29.851253,-29.043552,South Africa,12294.87614,57010000,6.81145,-0.00717639,6.80428,949.1471339,,,,,,,120,1,134,12,58,58,3,9,2,44,14,54,2,0,0,5,6,17,49,3,10798,1872.441,64.367,3,107,636,Subtropical,,,,,
4616,Craigie Burn,Indian Ocean Coast,Tugela,Greytown,South Africa,,1983,,,,2.13,23.4,11,387,191.7,1308,147,Main,,,,,,,,,,Irrigation,,30.288542,-29.16547,South Africa,12294.87614,57010000,3.80678,-0.000131982,3.80665,28843.17558,,,,,,,120,1,134,12,58,58,3,9,2,44,14,54,2,0,0,5,6,17,49,3,10798,1872.441,64.367,3,107,636,Subtropical,,,,,
4615,Merthley,Indian Ocean Coast,Mgeni,Greytown,South Africa,,1954,,,,0.44,1.1,2.5,68,51.3,1316,16,,,,,,,,,,,,,30.563966,-29.039491,South Africa,12294.87614,57010000,1.03295,-9.74E-06,1.03294,106052.3614,,,,,,,255,100,147,14,71,79,2,1,,67,16,4,0,0,0,0,8,52,67,3,3495,0.035,26.807,0,144,635,Subtropical,,,,,
4620,Hazelmere,Indian Ocean Coast,Mgeni,Verulam,South Africa,,1979,,,,1.22,22.9,18.8,3151,23,63,381,Main,,,,,,,,,,Irrigation,,31.042112,-29.599098,South Africa,12294.87614,57010000,2.45123,-0.00213303,2.4491,1149.177461,,,,,,,255,100,147,14,71,79,2,1,,67,16,4,0,0,0,0,8,52,67,3,3495,0.035,26.807,0,144,635,Subtropical,,,,,
4617,Albert Falls,Indian Ocean Coast,Mgeni,New Hanover,South Africa,,1983,,33,,22.6,289.2,12.8,7292,125.8,639,1658,Main,,,,,,,,,,Irrigation,,30.425415,-29.430711,South Africa,12294.87614,57010000,24.6741,-0.0293473,24.6448,840.7621826,706.3720863,15964.00915,,,,,186,1,161,14,67,67,3,1,2,70,17,44,2,0,0,2,6,24,57,3,7700,2033.759,454.962,20,168,635,Subtropical,,,,,
4618,Midmar,Indian Ocean Coast,Mgeni,Howick,South Africa,,1983,,32,,15.16,177.1,11.7,4698,119.5,1028,932,,,Main,,,,,,,,Water supply,,30.200586,-29.49547,South Africa,12294.87614,57010000,17.9673,-0.0145252,17.9528,1236.974362,534.6361125,8105.083466,,,,,186,1,161,14,67,67,3,1,2,70,17,44,2,0,0,2,6,24,57,3,7700,2033.759,454.962,20,168,635,Subtropical,,,,,
4619,Nagle,Indian Ocean Coast,Mgeni,Pietermaritzburg,South Africa,,1950,,,,1.76,23.2,13.2,11884,6.2,409,2554,,,Main,,,,,,,,Water supply,,30.635295,-29.594114,South Africa,12294.87614,57010000,3.37208,-0.0123197,3.35976,273.7144573,,,,,,,186,1,161,14,67,67,3,1,2,70,17,44,2,0,0,2,6,24,57,3,7700,2033.759,454.962,20,168,635,Subtropical,,,,,
4621,Henley,Indian Ocean Coast,Mgeni,Pietermaritzburg,South Africa,,1983,,,,0.3,5.5,18.3,1407,12.4,927,221,,,Main,,,,,,,,Water supply,,30.246663,-29.624215,South Africa,12294.87614,57010000,0.823765,-0.000315906,0.82345,2607.626952,,,,,,,186,1,161,14,67,67,3,1,2,70,17,44,2,0,0,2,6,24,57,3,7700,2033.759,454.962,20,168,635,Subtropical,,,,,
4622,Ntshongweni,Indian Ocean Coast,Mgeni,Durban,South Africa,,1927,,,,0.29,12.1,41.7,5803,6.6,303,777,,,,,,,,,,,,,30.719792,-29.859611,South Africa,12294.87614,57010000,0.823765,-0.000701671,0.823064,1174.004626,,,,,,,273,83,185,14,76,80,3,1,4,1,3,6,0,0,0,0,8,22,68,3,568,316.627,4680.064,76,417,635,Subtropical,,,,,
4268,Umtata,Indian Ocean Coast,Mzimkulu,Umtata,South Africa,,1977,,38,,22.56,255.9,11.3,6226,130.3,679,894,,,Main,,,,,,,,Water supply,,28.739853,-31.550274,South Africa,12294.87614,57010000,24.6741,-0.0344041,24.6397,717.1848704,571.1051469,12884.13211,,,,,319,46,139,14,70,102,3,1,,100,6,0,0,0,0,0,6,79,87,2,1836,5.976,385.965,0,160,622,Subtropical,,,,,
4267,Doringrivier,Indian Ocean Coast,Groot Kei,Indwe,South Africa,,1984,,,,3.13,19.9,6.4,553,114.1,1244,314,,,,,,,,,,,,,27.333023,-31.512623,South Africa,12294.87614,57010000,5.17136,-0.000513652,5.17085,10067.82802,,,,,,,109,1,121,11,50,50,12,9,2,36,12,72,1,0,0,1,6,25,43,3,3282,756.074,36.8,1,103,622,Subtropical,,,,,
4270,Ncora,Indian Ocean Coast,Mzimkulu,Tsomo,South Africa,,1976,,45,,12.9,161.7,12.5,5746,89.2,1032,1796,Main,,,,,,,,,,Irrigation,,27.676269,-31.78524,South Africa,12294.87614,57010000,15.8741,-0.0131442,15.861,1207.688562,600.6594253,7748.506586,,,,,109,1,121,11,50,50,12,9,2,36,12,72,1,0,0,1,6,25,43,3,3282,756.074,36.8,1,103,622,Subtropical,,,,,
4271,Lubisi,Indian Ocean Coast,Groot Kei,Indwe,South Africa,,1968,,,,10.64,157.9,14.8,3191,156.9,1019,1322,,,,,,,,,,,,,27.431261,-31.793616,South Africa,12294.87614,57010000,13.6021,-0.00562277,13.5965,2419.110154,,,,,,,109,1,121,11,50,50,12,9,2,36,12,72,1,0,0,1,6,25,43,3,3282,756.074,36.8,1,103,622,Subtropical,,,,,
4273,Xonxa,Indian Ocean Coast,Groot Kei,Lady Frere,South Africa,,1982,,,,13.64,143.5,10.5,2342,194.3,918,1477,,,,,,,,,,,,,27.180419,-31.837896,South Africa,12294.87614,57010000,16.5479,-0.00793505,16.5399,2085.418491,,,,,,,109,1,121,11,50,50,12,9,2,36,12,72,1,0,0,1,6,25,43,3,3282,756.074,36.8,1,103,622,Subtropical,,,,,
4274,Bonkolo,Indian Ocean Coast,Groot Kei,Queenstown,South Africa,,1908,,,,1.03,7,6.8,218,101.8,1148,106,,,Main,,,,,,,,Water supply,,26.915973,-31.875928,South Africa,12294.87614,57010000,2.12373,-5.65E-05,2.12368,37588.14159,,,,,,,109,1,121,11,50,50,12,9,2,36,12,72,1,0,0,1,6,25,43,3,3282,756.074,36.8,1,103,622,Subtropical,,,,,
4283,Waterdown,Indian Ocean Coast,Groot Kei,Cathcart,South Africa,,1967,,,,1.94,38.2,19.7,2293,52.8,1171,582,Main,,Sec,,,,,,,,Irrigation,,26.861263,-32.28526,South Africa,12294.87614,57010000,3.51858,-0.00207747,3.5165,1693.685107,,,,,,,109,1,121,11,50,50,12,9,2,36,12,72,1,0,0,1,6,25,43,3,3282,756.074,36.8,1,103,622,Subtropical,,,,,
4284,Sam Meyer,Indian Ocean Coast,Groot Kei,Waqu,South Africa,,1972,,,,0.11,0.7,6.4,1289,1.7,1106,299,,,,,,,,,,,,,27.141786,-32.323016,South Africa,12294.87614,57010000,0.347136,-3.35E-05,0.347103,10362.26866,,,,,,,109,1,121,11,50,50,12,9,2,36,12,72,1,0,0,1,6,25,43,3,3282,756.074,36.8,1,103,622,Subtropical,,,,,
4287,Gubu,Indian Ocean Coast,Groot Kei,Stutterheim,South Africa,,1981,,,,0.91,9.3,10.2,116,254.2,1018,22,Main,,Sec,,,,,,,,Irrigation,,27.276532,-32.610176,South Africa,12294.87614,57010000,1.95482,-1.89E-05,1.9548,103429.6296,,,,,,,109,1,121,11,50,50,12,9,2,36,12,72,1,0,0,1,6,25,43,3,3282,756.074,36.8,1,103,622,Subtropical,,,,,
4289,Maden,Indian Ocean Coast,Groot Kei,King William's Town,South Africa,,1981,,,,0.06,0.3,5,173,5.5,541,31,,,,,,,,,,,,,27.29875,-32.735417,South Africa,12294.87614,57010000,0.347136,-2.90E-06,0.347133,119702.069,,,,,,,160,60,100,14,57,85,3,10,1,18,12,41,0,0,0,35,6,58,73,3,2441,0.852,43.324,0,169,622,Subtropical,,,,,
4290,Rooikrantz,Indian Ocean Coast,Groot Kei,King William's Town,South Africa,,1981,,,,0.62,5,8.1,321,49.4,515,56,,,Main,,,,,,,,Water supply,,27.324325,-32.754525,South Africa,12294.87614,57010000,1.421,-7.88E-05,1.42092,18032.99492,,,,,,,160,60,100,14,57,85,3,10,1,18,12,41,0,0,0,35,6,58,73,3,2441,0.852,43.324,0,169,622,Subtropical,,,,,
4291,Nahoon,Indian Ocean Coast,Groot Kei,East London,South Africa,,1981,,,,1.89,20.8,11,2858,23.1,164,474,,,Main,,,,,,,,Water supply,,27.805016,-32.902012,South Africa,12294.87614,57010000,3.51858,-0.00107271,3.51751,3280.085018,,,,,,,160,60,100,14,57,85,3,10,1,18,12,41,0,0,0,35,6,58,73,3,2441,0.852,43.324,0,169,622,Subtropical,,,,,
4293,Laing,Indian Ocean Coast,Groot Kei,East London,South Africa,,1981,,,,1.74,21,12.1,5597,11.9,308,919,,,,,,,,,,,,,27.49515,-32.967881,South Africa,12294.87614,57010000,3.22382,-0.00753168,3.21629,428.0346483,,,,,,,160,60,100,14,57,85,3,10,1,18,12,41,0,0,0,35,6,58,73,3,2441,0.852,43.324,0,169,622,Subtropical,,,,,
4294,Umziniana,Indian Ocean Coast,Groot Kei,East London,South Africa,,1918,,,,0.13,1.2,9.2,1,3805.2,169,0,,,,,Main,,,,,,Recreation,,27.818285,-32.984615,South Africa,12294.87614,57010000,0.347136,-2.05E-08,0.347136,16933463.41,,,,,,,160,60,100,14,57,85,3,10,1,18,12,41,0,0,0,35,6,58,73,3,2441,0.852,43.324,0,169,622,Subtropical,,,,,
4295,Bridledrift,Indian Ocean Coast,Groot Kei,East London,South Africa,,1981,,,,6.76,73.5,10.9,7239,32.2,156,1185,,,Main,,,,,,,,Water supply,,27.732292,-32.988456,South Africa,12294.87614,57010000,9.59294,-0.0239692,9.56897,400.2194483,,,,,,,160,60,100,14,57,85,3,10,1,18,12,41,0,0,0,35,6,58,73,3,2441,0.852,43.324,0,169,622,Subtropical,,,,,
4286,Katrivier,Indian Ocean Coast,Groot Vis,Seymour,South Africa,,1981,,,,1.78,24.9,14,930,84.9,726,267,Main,,Sec,,,,,,,,Irrigation,,26.758189,-32.571359,South Africa,12294.87614,57010000,3.37208,-0.000406738,3.37167,8290.545757,,,,,,,91,1,125,14,44,34,3,10,,22,6,82,2,0,0,3,3,22,30,3,2529,230.525,7.605,0,81,622,Subtropical,,,,,
4278,Kommandodrift,Indian Ocean Coast,Groot Vis,Cradock,South Africa,,1980,,,,3.8,58.9,15.5,2006,93.1,1012,3449,,,,,,,,,,,,,26.04375,-32.10625,South Africa,12294.87614,57010000,6.06957,-0.00245903,6.06711,2468.278142,,,,,,,19,0,102,11,34,34,12,10,2,2,1,93,1,0,0,1,6,22,30,3,3008,9.806,2.066,0,75,622,Subtropical,,,,,
4281,Lake Arthur,Indian Ocean Coast,Groot Vis,Cradock,South Africa,,1984,,,,2.12,63,29.7,2344,85.2,877,4486,Main,,,,,,,,,,Irrigation,,25.817567,-32.225547,South Africa,12294.87614,57010000,3.80678,-0.00186168,3.80492,2044.80899,,,,,,,19,0,102,11,34,34,12,10,2,2,1,93,1,0,0,1,6,22,30,3,3008,9.806,2.066,0,75,622,Subtropical,,,,,
4269,Grassridge,Indian Ocean Coast,Groot Vis,Hofmeyer,South Africa,,1984,,,,6.61,49.6,7.5,1413,111.3,1045,4398,Main,,,,,,,,,,Irrigation,,25.466275,-31.767019,South Africa,12294.87614,57010000,9.37029,-0.0013707,9.36892,6836.134822,,,,,,,8,0,71,12,28,28,12,10,2,0,0,94,2,0,0,0,6,18,25,3,2149,14.438,3.23,0,81,624,Subtropical,,,,,
4303,Nuwejaars,Indian Ocean Coast,Sondags,Alicedale,South Africa,,1981,,,,0.22,4.6,20.9,903,16.2,310,519,,,,,,,,,,,,,26.113097,-33.301216,South Africa,12294.87614,57010000,0.598812,-9.97E-05,0.598712,6006.138415,,,,,,,70,75,87,14,45,53,3,10,1,0,7,89,0,0,0,3,6,31,46,3,63,0.004,13.05,0,97,622,Subtropical,,,,,
4282,Van Ryneveld's Pass,Indian Ocean Coast,Sondags,Graaff-Reinet,South Africa,,1985,,,,8.88,46.5,5.2,2047,72,818,3669,Main,,,,,,,,,,Irrigation,,24.529854,-32.237656,South Africa,12294.87614,57010000,11.8547,-0.00311877,11.8516,3801.081837,,,,,,,23,1,102,12,24,24,12,10,2,21,5,77,2,0,0,6,6,22,21,3,1489,110.857,5.188,0,71,625,Subtropical,,,,,
4300,Lake Mentz,Indian Ocean Coast,Sondags,Kirkwood,South Africa,,1978,,,,19.69,191.8,9.7,9609,63.3,231,16955,Main,,,,,,,,,,Irrigation,,25.148031,-33.204941,South Africa,12294.87614,57010000,22.1476,-0.0360553,22.1116,614.2675279,,,,,,,23,1,102,12,24,24,12,10,2,21,5,77,2,0,0,6,6,22,21,3,1489,110.857,5.188,0,71,625,Subtropical,,,,,
4317,Groendal,Indian Ocean Coast,Sondags,Uitenhage,South Africa,,1932,,,,0.34,11.8,34.7,448,83.5,143,265,,,Main,,,,,,,,Water supply,,25.265026,-33.693218,South Africa,12294.87614,57010000,0.823765,-8.84E-05,0.823677,9318.608597,,,,,,,66,77,110,12,41,37,2,11,1,48,13,38,3,0,0,8,5,29,32,3,310,0.04,1.081,0,95,622,Subtropical,,,,,
4320,Sandrivier,Indian Ocean Coast,Sondags,Uitenhage,South Africa,,1969,,,,0.15,2.7,18,93,92.1,307,52,,,Main,,,,,,,,Water supply,,25.096152,-33.728796,South Africa,12294.87614,57010000,0.598812,-2.77E-06,0.598809,216177.6173,,,,,,,66,77,110,12,41,37,2,11,1,48,13,38,3,0,0,8,5,29,32,3,310,0.04,1.081,0,95,622,Subtropical,,,,,
4321,Kouga,Indian Ocean Coast,Gamtoos,Patensie,South Africa,,1986,,,,45.59,128.5,2.8,22231,18.3,115,33621,Main,,,,,,,,,,Irrigation,,24.617143,-33.745313,South Africa,12294.87614,57010000,42.859,-0.313345,42.5456,136.7789497,,,,,,,51,2,138,12,46,26,2,11,2,11,6,80,1,0,0,5,5,21,24,3,1339,85.908,2.464,0,65,622,Subtropical,,,,,
4327,Loerie,Indian Ocean Coast,Gamtoos,Hankey,South Africa,,1984,,,,0.15,3.4,22.7,299,36.1,36,149,,,Main,,,,,,,,Water supply,,25.040399,-33.864327,South Africa,12294.87614,57010000,0.598812,-1.88E-05,0.598793,31851.70213,,,,,,,51,2,138,12,46,26,2,11,2,11,6,80,1,0,0,5,5,21,24,3,1339,85.908,2.464,0,65,622,Subtropical,,,,,
4297,Klipplaat,Indian Ocean Coast,Gamtoos,Klipplaat,South Africa,,1975,,,,0.34,1.8,5.3,9,634.2,628,28,,,Main,,,,,,,,Water supply,,24.288214,-33.017867,South Africa,12294.87614,57010000,0.823765,-6.01E-07,0.823765,1370657.238,,,,,,,27,1,93,12,29,21,12,10,,2,5,86,0,0,0,1,5,19,19,3,1095,33.268,1.122,0,66,622,Subtropical,,,,,
4298,Beervlei,Indian Ocean Coast,Gamtoos,Willowmore,South Africa,,1985,,,,3.28,88.7,27,2682,104.9,715,20692,,,,Main,,,,,,,Flood control,,23.491014,-33.075869,South Africa,12294.87614,57010000,5.43204,-0.00335621,5.42869,1618.504206,,,,,,,21,1,84,12,26,19,12,10,2,0,6,86,0,0,0,0,5,19,18,3,940,22.698,1.021,0,64,622,Subtropical,,,,,
4272,Rietport,Indian Ocean Coast,Gamtoos,Murraysburg,South Africa,,1955,,,,0.15,0.1,0.7,101,3.1,1214,616,Main,,,,,,,,,,Irrigation,,23.746875,-31.797052,South Africa,12294.87614,57010000,0.347136,-4.11E-06,0.347132,84461.31387,,,,,,,6,1,102,11,25,25,13,10,,0,2,95,1,0,0,0,5,21,23,3,1710,6.045,2.313,0,66,755,Subtropical,,,,,
4329,Tuinroete,Indian Ocean Coast,Krom,George,South Africa,,1980,,39,,0.43,8.1,18.8,93,276.2,174,40,,,,,,,,,,,,,22.513104,-33.963258,South Africa,12294.87614,57010000,1.03295,-9.48E-06,1.03294,108960.9705,,,,,,,101,100,162,11,68,48,2,11,1,75,1,63,15,0,0,0,5,48,42,3,361,0.007,8.871,0,78,716,Subtropical,,,,,
4331,Churchill,Indian Ocean Coast,Krom,Humansdorp,South Africa,,1984,,,,1.23,33.3,27.1,1082,97.6,152,371,,,Main,,,,,,,,Water supply,,24.488542,-33.996515,South Africa,12294.87614,57010000,2.45123,-0.000751458,2.45048,3261.965406,,,,,,,101,100,162,11,68,48,2,11,1,75,1,63,15,0,0,0,5,48,42,3,361,0.007,8.871,0,78,716,Subtropical,,,,,
4336,Impofu,Indian Ocean Coast,Krom,Humansdorp,South Africa,,1983,,,,3.05,105.7,34.7,2218,151.1,73,861,,,Main,,,,,,,,Water supply,,24.6886,-34.093211,South Africa,12294.87614,57010000,5.03969,-0.00400595,5.03568,1258.051149,,,,,,,101,100,162,11,68,48,2,11,1,75,1,63,15,0,0,0,5,48,42,3,361,0.007,8.871,0,78,716,Subtropical,,,,,
4337,Hartebeeskuil,Indian Ocean Coast,Krom,Mosselbaai,South Africa,,1981,,,,0.33,7,21.2,144,154.1,98,101,,,,,,,,,,,,,22.000672,-34.095722,South Africa,12294.87614,57010000,0.823765,-5.82E-06,0.82376,141540.378,,,,,,,101,100,162,11,68,48,2,11,1,75,1,63,15,0,0,0,5,48,42,3,361,0.007,8.871,0,78,716,Subtropical,,,,,
4302,Floriskaal,Indian Ocean Coast,Gouritz,Laingsburg,South Africa,,1981,,,,4.41,52,11.8,1356,121.6,593,3830,,,,,,,,,,,,,20.98959,-33.289399,South Africa,12294.87614,57010000,6.81145,-0.000973418,6.81048,6997.456386,,,,,,,22,0,112,12,19,19,13,10,2,1,8,84,1,0,0,8,5,26,17,3,723,31.706,2.381,0,67,773,Subtropical,,,,,
4305,Verkeerdevlei,Indian Ocean Coast,Gouritz,Touwsriver,South Africa,,1989,,,,1.67,5.5,3.3,477,36.6,807,266,,,,,,,,,,,,,19.88397,-33.332189,South Africa,12294.87614,57010000,3.22382,-0.000370398,3.22345,8703.664707,,,,,,,22,0,112,12,19,19,13,10,2,1,8,84,1,0,0,8,5,26,17,3,723,31.706,2.381,0,67,773,Subtropical,,,,,
4309,Gants,Indian Ocean Coast,Gouritz,Touwsriver,South Africa,,1950,,,,0.49,1.5,3.1,6,792.7,890,10,Main,,,,,,,,,,Irrigation,,20.405208,-33.393856,South Africa,12294.87614,57010000,1.23115,-5.40E-07,1.23115,2279907.407,,,,,,,22,0,112,12,19,19,13,10,2,1,8,84,1,0,0,8,5,26,17,3,723,31.706,2.381,0,67,773,Subtropical,,,,,
4314,Prinsrivier,Indian Ocean Coast,Gouritz,Ladismith,South Africa,,1981,,,,0.34,1.3,3.8,430,9.6,543,757,Main,,,,,,,,,,Irrigation,,20.751042,-33.513878,South Africa,12294.87614,57010000,0.823765,-5.85E-05,0.823707,14081.45299,,,,,,,22,0,112,12,19,19,13,10,2,1,8,84,1,0,0,8,5,26,17,3,723,31.706,2.381,0,67,773,Subtropical,,,,,
4319,Bellair,Indian Ocean Coast,Gouritz,Barrydale,South Africa,,1981,,,,1.12,10.1,9,555,57.7,486,524,Main,,,,,,,,,,Irrigation,,20.598857,-33.7124,South Africa,12294.87614,57010000,2.28907,-0.000185024,2.28889,12371.74637,,,,,,,22,0,112,12,19,19,13,10,2,1,8,84,1,0,0,8,5,26,17,3,723,31.706,2.381,0,67,773,Subtropical,,,,,
4310,Koos Raubenheimer,Indian Ocean Coast,Gouritz,Oudtshoorn,South Africa,,1984,,,,0.42,9.2,21.9,53,550.4,575,63,Main,,Sec,,,,,,,,Irrigation,,22.282513,-33.408908,South Africa,12294.87614,57010000,1.03295,-5.10E-06,1.03295,202539.2157,,,,,,,33,1,146,12,26,35,12,10,,12,6,77,3,0,0,8,5,25,32,3,1321,112.334,10.197,0,75,777,Subtropical,,,,,
4279,Doornfontein,Indian Ocean Coast,Gouritz,Beaufort West,South Africa,,1956,,,,0.52,4.4,8.5,14,996.6,1425,29,,,,,,,,,,,,,22.157329,-32.106656,South Africa,12294.87614,57010000,1.23115,-1.12E-06,1.23115,1099241.071,,,,,,,12,0,109,12,14,14,14,12,1,1,1,67,0,0,0,7,5,19,13,3,914,60.28,3.265,0,60,772,Subtropical,,,,,
4288,Leeu-Gamka,Indian Ocean Coast,Gouritz,Beaufort West,South Africa,,1981,,,,2.19,14.2,6.5,1493,30.2,608,2111,Main,,,,,,,,,,Irrigation,,22.004794,-32.621725,South Africa,12294.87614,57010000,3.94866,-0.00124283,3.94742,3177.152145,,,,,,,12,0,109,12,14,14,14,12,1,1,1,67,0,0,0,7,5,19,13,3,914,60.28,3.265,0,60,772,Subtropical,,,,,
4304,Gamkapoort,Indian Ocean Coast,Gouritz,Prince Albert,South Africa,,1981,,,,4.39,43.8,10,8735,15.9,362,17145,,,,Main,,,,,,,Flood control,,21.633867,-33.308473,South Africa,12294.87614,57010000,6.81145,-0.0148409,6.79661,458.9647528,,,,,,,12,0,109,12,14,14,14,12,1,1,1,67,0,0,0,7,5,19,13,3,914,60.28,3.265,0,60,772,Subtropical,,,,,
4312,Calitzdorp,Indian Ocean Coast,Gouritz,Calitzdorp,South Africa,,1981,,,,0.35,4.8,13.7,90,169.1,305,166,Main,,Sec,,,,,,,,Irrigation,,21.703615,-33.488807,South Africa,12294.87614,57010000,0.823765,-7.18E-06,0.823758,114730.5014,,,,,,,12,0,109,12,14,14,14,12,1,1,1,67,0,0,0,7,5,19,13,3,914,60.28,3.265,0,60,772,Subtropical,,,,,
4316,Kammanassie,Indian Ocean Coast,Gouritz,Oudtshoorn,South Africa,,1981,,,,0.86,35.9,41.7,4614,24.7,357,1511,Main,,,,,,,,,,Irrigation,,22.409312,-33.64488,South Africa,12294.87614,57010000,1.95482,-0.00214448,1.95268,911.5589793,,,,,,,83,0,133,11,52,52,12,10,2,16,5,86,5,0,0,10,5,28,46,3,1511,10.334,5.647,0,85,777,Subtropical,,,,,
4313,Stompdrift,Indian Ocean Coast,Gouritz,De Rust,South Africa,,1981,,,,3.89,55.3,14.2,5889,29.8,427,5196,Main,,,,,,,,,,Irrigation,,22.585419,-33.512207,South Africa,12294.87614,57010000,6.19486,-0.0208018,6.17406,297.8040362,,,,,,,48,0,185,12,37,34,12,10,1,6,4,78,2,0,0,8,5,24,31,3,1481,53.91,8.184,0,69,775,Subtropical,,,,,
4301,Ottergat,South Atlantic Coast,Olifants,Groenfontein,South Africa,,1972,,,,0.21,1.5,7.1,69,68.9,869,8,Main,,,,,,,,,,Irrigation,,19.255706,-33.27646,South Africa,12294.87614,57010000,0.598812,-4.22E-06,0.598807,141898.5782,,,,,,,117,50,130,12,41,42,12,10,1,81,27,69,0,0,0,0,5,52,37,3,111,0.441,46.542,0,109,777,Subtropical,,,,,
4307,Ceres,South Atlantic Coast,Olifants,Ceres,South Africa,,1981,,,,0.77,0.3,0.4,505,1.9,644,50,,,,,,,,,,,,,19.27206,-33.363208,South Africa,12294.87614,57010000,1.78185,-0.000180996,1.78167,9844.6927,,,,,,,117,50,130,12,41,42,12,10,1,81,27,69,0,0,0,0,5,52,37,3,111,0.441,46.542,0,109,777,Subtropical,,,,,
4308,Lakenvalley,South Atlantic Coast,Groot Berg,Ceres,South Africa,,1974,,,,0.73,10.3,14.1,288,113.4,934,81,Main,,,,,,,,,,Irrigation,,19.58125,-33.36446,South Africa,12294.87614,57010000,1.60418,-6.93E-05,1.60411,23155.35732,,,,,,,117,50,130,12,41,42,12,10,1,81,27,69,0,0,0,0,5,52,37,3,111,0.441,46.542,0,109,777,Subtropical,,,,,
4311,Eselfontein,South Atlantic Coast,Olifants,Ceres,South Africa,,1971,,,,0.19,0.6,3.2,15,126.8,583,2,,,,,,,,,,,,,19.437682,-33.417715,South Africa,12294.87614,57010000,0.598812,-8.35E-08,0.598812,7171401.198,,,,,,,117,50,130,12,41,42,12,10,1,81,27,69,0,0,0,0,5,52,37,3,111,0.441,46.542,0,109,777,Subtropical,,,,,
4315,Keerom,South Atlantic Coast,Groot Berg,Worcester,South Africa,,1981,,,,0.41,7.4,18,1050,22.3,621,387,Main,,,,,,,,,,Irrigation,,19.711458,-33.583899,South Africa,12294.87614,57010000,1.03295,-0.000127399,1.03283,8107.991429,,,,,,,117,50,130,12,41,42,12,10,1,81,27,69,0,0,0,0,5,52,37,3,111,0.441,46.542,0,109,777,Subtropical,,,,,
4318,Brandvlei,South Atlantic Coast,Groot Berg,Worcester,South Africa,,1983,,,,32.38,474.7,14.7,831,1811.4,207,90,,,,,,,,,,,,,19.450415,-33.706957,South Africa,12294.87614,57010000,32.7563,-0.00209747,32.7542,15617.05293,,,,,,,117,50,130,12,41,42,12,10,1,81,27,69,0,0,0,0,5,52,37,3,111,0.441,46.542,0,109,777,Subtropical,,,,,
4322,Montagu,Indian Ocean Coast,Breede,Robertson,South Africa,,1969,,,,0.31,0.3,1,4,237.8,243,2,,,Main,,,,,,,,Water supply,,20.14375,-33.781128,South Africa,12294.87614,57010000,0.823765,-1.79E-07,0.823765,4602039.106,,,,,,,117,50,130,12,41,42,12,10,1,81,27,69,0,0,0,0,5,52,37,3,111,0.441,46.542,0,109,777,Subtropical,,,,,
4323,Moordkuil,South Atlantic Coast,Groot Berg,Worcester,South Africa,,1985,,,,0.67,1.5,2.2,1694,2.8,197,176,,,,,,,,,,,,,19.46875,-33.794702,South Africa,12294.87614,57010000,1.60418,-0.00079649,1.60339,2014.061696,,,,,,,117,50,130,12,41,42,12,10,1,81,27,69,0,0,0,0,5,52,37,3,111,0.441,46.542,0,109,777,Subtropical,,,,,
4325,Stettynskloof,South Atlantic Coast,Groot Berg,Worcester,South Africa,,1984,,,,0.5,15.5,31,739,66.5,476,64,,,Main,,,,,,,,Water supply,,19.250482,-33.837062,South Africa,12294.87614,57010000,1.23115,-0.000232362,1.23091,5298.413682,,,,,,,117,50,130,12,41,42,12,10,1,81,27,69,0,0,0,0,5,52,37,3,111,0.441,46.542,0,109,777,Subtropical,,,,,
4326,Poortjieskloof,Indian Ocean Coast,Breede,Montagu,South Africa,,1979,,,,0.68,10,14.7,129,245.8,380,94,Main,,,,,,,,,,Irrigation,,20.37198,-33.860692,South Africa,12294.87614,57010000,1.60418,-2.00E-05,1.60416,80209,,,,,,,117,50,130,12,41,42,12,10,1,81,27,69,0,0,0,0,5,52,37,3,111,0.441,46.542,0,109,777,Subtropical,,,,,
